{"cities":[{"name":"Ábelová","state":"Banskobystrický","territory":"","country":"Slovakia","latitude":48.4420021,"longitude":19.4155669,"population":221,"stateCapital":false,"nationalCapital":false,"pk":null,"quiz":"europe","code":null,"archived":false,"percentageOfSessions":null}, {"name":"Abovce","state":"Banskobystrický","territory":"","country":"Slovakia","latitude":48.3113407,"longitude":20.3442652,"population":593,"stateCapital":false,"nationalCapital":false,"pk":null,"quiz":"europe","code":null,"archived":false,"percentageOfSessions":null}, {"name":"Abrahám","state":"Trnavský","territory":"","country":"Slovakia","latitude":48.2464436,"longitude":17.627731,"population":1065,"stateCapital":false,"nationalCapital":false,"pk":null,"quiz":"europe","code":null,"archived":false,"percentageOfSessions":null}, {"name":"Abrahámovce","state":"Prešovský","territory":"","country":"Slovakia","latitude":49.0437358,"longitude":20.4501425,"population":365,"stateCapital":false,"nationalCapital":false,"pk":null,"quiz":"europe","code":null,"archived":false,"percentageOfSessions":null}, {"name":"Abrahámovce","state":"Prešovský","territory":"","country":"Slovakia","latitude":49.0437358,"longitude":20.4501425,"population":244,"stateCapital":false,"nationalCapital":false,"pk":null,"quiz":"europe","code":null,"archived":false,"percentageOfSessions":null}, {"name":"Abramová","state":"Žilinský","territory":"","country":"Slovakia","latitude":48.928793,"longitude":18.7829783,"population":101,"stateCapital":false,"nationalCapital":false,"pk":null,"quiz":"europe","code":null,"archived":false,"percentageOfSessions":null}, {"name":"Abranovce","state":"Prešovský","territory":"","country":"Slovakia","latitude":48.9376531,"longitude":21.3538211,"population":619,"stateCapital":false,"nationalCapital":false,"pk":null,"quiz":"europe","code":null,"archived":false,"percentageOfSessions":null}, {"name":"Adamov","state":"Trnavský","territory":"","country":"Slovakia","latitude":48.7235278,"longitude":17.0430802,"population":19,"stateCapital":false,"nationalCapital":false,"pk":null,"quiz":"europe","code":null,"archived":false,"percentageOfSessions":null}, {"name":"Adamovce","state":"Trenčiansky","territory":"","country":"Slovakia","latitude":48.8527644,"longitude":17.9355401,"population":348,"stateCapital":false,"nationalCapital":false,"pk":null,"quiz":"europe","code":null,"archived":false,"percentageOfSessions":null}, {"name":"Adidovce","state":"Prešovský","territory":"","country":"Slovakia","latitude":49.0222279,"longitude":22.0623639,"population":212,"stateCapital":false,"nationalCapital":false,"pk":null,"quiz":"europe","code":null,"archived":false,"percentageOfSessions":null}, {"name":"Albínov","state":"Košický","territory":"","country":"Slovakia","latitude":48.7308615,"longitude":21.6663958,"population":167,"stateCapital":false,"nationalCapital":false,"pk":null,"quiz":"europe","code":null,"archived":false,"percentageOfSessions":null}, {"name":"Alekšince","state":"Nitriansky","territory":"","country":"Slovakia","latitude":48.3546396,"longitude":17.955205,"population":1673,"stateCapital":false,"nationalCapital":false,"pk":null,"quiz":"europe","code":null,"archived":false,"percentageOfSessions":null}, {"name":"Alexandrov Dvor","state":"Nitriansky","territory":"","country":"Slovakia","latitude":48.2948785,"longitude":17.8944545,"population":119,"stateCapital":false,"nationalCapital":false,"pk":null,"quiz":"europe","code":null,"archived":false,"percentageOfSessions":null}, {"name":"Alžbetin Dvor","state":"Bratislavský","territory":"","country":"Slovakia","latitude":48.0871353,"longitude":17.3129864,"population":1464,"stateCapital":false,"nationalCapital":false,"pk":null,"quiz":"europe","code":null,"archived":false,"percentageOfSessions":null}, {"name":"Amadeho Kračany","state":"Trnavský","territory":"","country":"Slovakia","latitude":47.959165,"longitude":17.5785954,"population":420,"stateCapital":false,"nationalCapital":false,"pk":null,"quiz":"europe","code":null,"archived":false,"percentageOfSessions":null}, {"name":"Ambrušovce","state":"Prešovský","territory":"","country":"Slovakia","latitude":49.1762587,"longitude":21.163178,"population":0,"stateCapital":false,"nationalCapital":false,"pk":null,"quiz":"europe","code":null,"archived":false,"percentageOfSessions":null}, {"name":"Aňala","state":"Nitriansky","territory":"","country":"Slovakia","latitude":47.9574298,"longitude":18.138703,"population":215,"stateCapital":false,"nationalCapital":false,"pk":null,"quiz":"europe","code":null,"archived":false,"percentageOfSessions":null}, {"name":"Aňalské Záhrady","state":"Nitriansky","territory":"","country":"Slovakia","latitude":47.965564,"longitude":18.1478149,"population":26,"stateCapital":false,"nationalCapital":false,"pk":null,"quiz":"europe","code":null,"archived":false,"percentageOfSessions":null}, {"name":"Andač","state":"Nitriansky","territory":"","country":"Slovakia","latitude":48.3777499,"longitude":17.9725451,"population":240,"stateCapital":false,"nationalCapital":false,"pk":null,"quiz":"europe","code":null,"archived":false,"percentageOfSessions":null}, {"name":"Andice","state":"Žilinský","territory":"","country":"Slovakia","latitude":49.0734856,"longitude":19.5528078,"population":138,"stateCapital":false,"nationalCapital":false,"pk":null,"quiz":"europe","code":null,"archived":false,"percentageOfSessions":null}, {"name":"Andovce","state":"Nitriansky","territory":"","country":"Slovakia","latitude":47.9918219,"longitude":18.0899,"population":1358,"stateCapital":false,"nationalCapital":false,"pk":null,"quiz":"europe","code":null,"archived":false,"percentageOfSessions":null}, {"name":"Andrejová","state":"Prešovský","territory":"","country":"Slovakia","latitude":49.3378962,"longitude":21.336245,"population":362,"stateCapital":false,"nationalCapital":false,"pk":null,"quiz":"europe","code":null,"archived":false,"percentageOfSessions":null}, {"name":"Andrejovka","state":"Prešovský","territory":"","country":"Slovakia","latitude":49.2869504,"longitude":20.8978329,"population":102,"stateCapital":false,"nationalCapital":false,"pk":null,"quiz":"europe","code":null,"archived":false,"percentageOfSessions":null}, {"name":"Arad","state":"Nitriansky","territory":"","country":"Slovakia","latitude":47.8794252,"longitude":18.469766,"population":61,"stateCapital":false,"nationalCapital":false,"pk":null,"quiz":"europe","code":null,"archived":false,"percentageOfSessions":null}, {"name":"Ardanovce","state":"Nitriansky","territory":"","country":"Slovakia","latitude":48.5490304,"longitude":17.8987983,"population":223,"stateCapital":false,"nationalCapital":false,"pk":null,"quiz":"europe","code":null,"archived":false,"percentageOfSessions":null}, {"name":"Ardovo","state":"Košický","territory":"","country":"Slovakia","latitude":48.5263242,"longitude":20.4292583,"population":159,"stateCapital":false,"nationalCapital":false,"pk":null,"quiz":"europe","code":null,"archived":false,"percentageOfSessions":null}, {"name":"Arma","state":"Nitriansky","territory":"","country":"Slovakia","latitude":48.061172,"longitude":18.5005669,"population":14,"stateCapital":false,"nationalCapital":false,"pk":null,"quiz":"europe","code":null,"archived":false,"percentageOfSessions":null}, {"name":"Arnutovce","state":"Košický","territory":"","country":"Slovakia","latitude":48.9800296,"longitude":20.4951505,"population":698,"stateCapital":false,"nationalCapital":false,"pk":null,"quiz":"europe","code":null,"archived":false,"percentageOfSessions":null}, {"name":"Babie","state":"Prešovský","territory":"","country":"Slovakia","latitude":49.0670892,"longitude":21.4913372,"population":252,"stateCapital":false,"nationalCapital":false,"pk":null,"quiz":"europe","code":null,"archived":false,"percentageOfSessions":null}, {"name":"Babín","state":"Žilinský","territory":"","country":"Slovakia","latitude":49.3238845,"longitude":19.3768075,"population":1403,"stateCapital":false,"nationalCapital":false,"pk":null,"quiz":"europe","code":null,"archived":false,"percentageOfSessions":null}, {"name":"Babin Potok","state":"Prešovský","territory":"","country":"Slovakia","latitude":49.125837,"longitude":21.2081984,"population":80,"stateCapital":false,"nationalCapital":false,"pk":null,"quiz":"europe","code":null,"archived":false,"percentageOfSessions":null}, {"name":"Babiná","state":"Banskobystrický","territory":"","country":"Slovakia","latitude":48.4338913,"longitude":19.0535856,"population":522,"stateCapital":false,"nationalCapital":false,"pk":null,"quiz":"europe","code":null,"archived":false,"percentageOfSessions":null}, {"name":"Babindol","state":"Nitriansky","territory":"","country":"Slovakia","latitude":48.2878748,"longitude":18.2343834,"population":667,"stateCapital":false,"nationalCapital":false,"pk":null,"quiz":"europe","code":null,"archived":false,"percentageOfSessions":null}, {"name":"Babinec","state":"Banskobystrický","territory":"","country":"Slovakia","latitude":48.5246094,"longitude":20.0055203,"population":69,"stateCapital":false,"nationalCapital":false,"pk":null,"quiz":"europe","code":null,"archived":false,"percentageOfSessions":null}, {"name":"Babiše","state":"Žilinský","territory":"","country":"Slovakia","latitude":49.334472,"longitude":18.505159,"population":104,"stateCapital":false,"nationalCapital":false,"pk":null,"quiz":"europe","code":null,"archived":false,"percentageOfSessions":null}, {"name":"Babkov","state":"Žilinský","territory":"","country":"Slovakia","latitude":49.1494625,"longitude":18.6323773,"population":631,"stateCapital":false,"nationalCapital":false,"pk":null,"quiz":"europe","code":null,"archived":false,"percentageOfSessions":null}, {"name":"Babulicov Vrch","state":"Trenčiansky","territory":"","country":"Slovakia","latitude":48.7356287,"longitude":17.6565505,"population":112,"stateCapital":false,"nationalCapital":false,"pk":null,"quiz":"europe","code":null,"archived":false,"percentageOfSessions":null}, {"name":"Báč","state":"Trnavský","territory":"","country":"Slovakia","latitude":48.0077005,"longitude":17.3769917,"population":553,"stateCapital":false,"nationalCapital":false,"pk":null,"quiz":"europe","code":null,"archived":false,"percentageOfSessions":null}, {"name":"Bačala","state":"Nitriansky","territory":"","country":"Slovakia","latitude":48.1889601,"longitude":17.9942318,"population":24,"stateCapital":false,"nationalCapital":false,"pk":null,"quiz":"europe","code":null,"archived":false,"percentageOfSessions":null}, {"name":"Bačka","state":"Košický","territory":"","country":"Slovakia","latitude":48.4510061,"longitude":22.0536613,"population":653,"stateCapital":false,"nationalCapital":false,"pk":null,"quiz":"europe","code":null,"archived":false,"percentageOfSessions":null}, {"name":"Bačkov","state":"Košický","territory":"","country":"Slovakia","latitude":48.7586345,"longitude":21.6035891,"population":637,"stateCapital":false,"nationalCapital":false,"pk":null,"quiz":"europe","code":null,"archived":false,"percentageOfSessions":null}, {"name":"Bačkovík","state":"Košický","territory":"","country":"Slovakia","latitude":48.7845972,"longitude":21.4345109,"population":475,"stateCapital":false,"nationalCapital":false,"pk":null,"quiz":"europe","code":null,"archived":false,"percentageOfSessions":null}, {"name":"Báčovce","state":"Banskobystrický","territory":"","country":"Slovakia","latitude":48.2371506,"longitude":18.9097412,"population":54,"stateCapital":false,"nationalCapital":false,"pk":null,"quiz":"europe","code":null,"archived":false,"percentageOfSessions":null}, {"name":"Bacúch","state":"Banskobystrický","territory":"","country":"Slovakia","latitude":48.8466999,"longitude":19.7937834,"population":1013,"stateCapital":false,"nationalCapital":false,"pk":null,"quiz":"europe","code":null,"archived":false,"percentageOfSessions":null}, {"name":"Bacúrov","state":"Banskobystrický","territory":"","country":"Slovakia","latitude":48.5166002,"longitude":19.0428314,"population":153,"stateCapital":false,"nationalCapital":false,"pk":null,"quiz":"europe","code":null,"archived":false,"percentageOfSessions":null}, {"name":"Baďan","state":"Banskobystrický","territory":"","country":"Slovakia","latitude":48.3393098,"longitude":18.8443736,"population":160,"stateCapital":false,"nationalCapital":false,"pk":null,"quiz":"europe","code":null,"archived":false,"percentageOfSessions":null}, {"name":"Bádice","state":"Nitriansky","territory":"","country":"Slovakia","latitude":48.3972721,"longitude":18.1345526,"population":322,"stateCapital":false,"nationalCapital":false,"pk":null,"quiz":"europe","code":null,"archived":false,"percentageOfSessions":null}, {"name":"Badín","state":"Banskobystrický","territory":"","country":"Slovakia","latitude":48.6732725,"longitude":19.0805907,"population":1831,"stateCapital":false,"nationalCapital":false,"pk":null,"quiz":"europe","code":null,"archived":false,"percentageOfSessions":null}, {"name":"Báhoň","state":"Bratislavský","territory":"","country":"Slovakia","latitude":48.3058718,"longitude":17.4273025,"population":1704,"stateCapital":false,"nationalCapital":false,"pk":null,"quiz":"europe","code":null,"archived":false,"percentageOfSessions":null}, {"name":"Bajany","state":"Košický","territory":"","country":"Slovakia","latitude":48.5944821,"longitude":22.1124365,"population":506,"stateCapital":false,"nationalCapital":false,"pk":null,"quiz":"europe","code":null,"archived":false,"percentageOfSessions":null}, {"name":"Bajč","state":"Nitriansky","territory":"","country":"Slovakia","latitude":47.9260952,"longitude":18.2218167,"population":945,"stateCapital":false,"nationalCapital":false,"pk":null,"quiz":"europe","code":null,"archived":false,"percentageOfSessions":null}, {"name":"Bajerov","state":"Prešovský","territory":"","country":"Slovakia","latitude":48.9544746,"longitude":21.1123092,"population":448,"stateCapital":false,"nationalCapital":false,"pk":null,"quiz":"europe","code":null,"archived":false,"percentageOfSessions":null}, {"name":"Bajerovce","state":"Prešovský","territory":"","country":"Slovakia","latitude":49.2077778,"longitude":20.7912256,"population":306,"stateCapital":false,"nationalCapital":false,"pk":null,"quiz":"europe","code":null,"archived":false,"percentageOfSessions":null}, {"name":"Bajka","state":"Nitriansky","territory":"","country":"Slovakia","latitude":48.1543396,"longitude":18.5040411,"population":324,"stateCapital":false,"nationalCapital":false,"pk":null,"quiz":"europe","code":null,"archived":false,"percentageOfSessions":null}, {"name":"Bajtava","state":"Nitriansky","territory":"","country":"Slovakia","latitude":47.852675,"longitude":18.7444804,"population":403,"stateCapital":false,"nationalCapital":false,"pk":null,"quiz":"europe","code":null,"archived":false,"percentageOfSessions":null}, {"name":"Baka","state":"Trnavský","territory":"","country":"Slovakia","latitude":47.8932351,"longitude":17.5147119,"population":1114,"stateCapital":false,"nationalCapital":false,"pk":null,"quiz":"europe","code":null,"archived":false,"percentageOfSessions":null}, {"name":"Bakta","state":"Banskobystrický","territory":"","country":"Slovakia","latitude":48.3917625,"longitude":20.0949428,"population":306,"stateCapital":false,"nationalCapital":false,"pk":null,"quiz":"europe","code":null,"archived":false,"percentageOfSessions":null}, {"name":"Baláže","state":"Banskobystrický","territory":"","country":"Slovakia","latitude":48.8285549,"longitude":19.1899754,"population":208,"stateCapital":false,"nationalCapital":false,"pk":null,"quiz":"europe","code":null,"archived":false,"percentageOfSessions":null}, {"name":"Baldovce","state":"Prešovský","territory":"","country":"Slovakia","latitude":48.9919548,"longitude":20.7142964,"population":179,"stateCapital":false,"nationalCapital":false,"pk":null,"quiz":"europe","code":null,"archived":false,"percentageOfSessions":null}, {"name":"Balog nad Ipľom","state":"Banskobystrický","territory":"","country":"Slovakia","latitude":48.0816571,"longitude":19.1254579,"population":846,"stateCapital":false,"nationalCapital":false,"pk":null,"quiz":"europe","code":null,"archived":false,"percentageOfSessions":null}, {"name":"Baloň","state":"Trnavský","territory":"","country":"Slovakia","latitude":47.8422123,"longitude":17.6529022,"population":756,"stateCapital":false,"nationalCapital":false,"pk":null,"quiz":"europe","code":null,"archived":false,"percentageOfSessions":null}, {"name":"Balvany","state":"Nitriansky","territory":"","country":"Slovakia","latitude":47.8537607,"longitude":17.9988985,"population":272,"stateCapital":false,"nationalCapital":false,"pk":null,"quiz":"europe","code":null,"archived":false,"percentageOfSessions":null}, {"name":"Baňa","state":"Prešovský","territory":"","country":"Slovakia","latitude":49.2166419,"longitude":21.6088731,"population":169,"stateCapital":false,"nationalCapital":false,"pk":null,"quiz":"europe","code":null,"archived":false,"percentageOfSessions":null}, {"name":"Banka","state":"Trnavský","territory":"","country":"Slovakia","latitude":48.5782837,"longitude":17.8600882,"population":2131,"stateCapital":false,"nationalCapital":false,"pk":null,"quiz":"europe","code":null,"archived":false,"percentageOfSessions":null}, {"name":"Banky","state":"Trenčiansky","territory":"","country":"Slovakia","latitude":48.7804609,"longitude":18.5030342,"population":308,"stateCapital":false,"nationalCapital":false,"pk":null,"quiz":"europe","code":null,"archived":false,"percentageOfSessions":null}, {"name":"Banky","state":"Banskobystrický","territory":"","country":"Slovakia","latitude":48.48973,"longitude":18.8529689,"population":78,"stateCapital":false,"nationalCapital":false,"pk":null,"quiz":"europe","code":null,"archived":false,"percentageOfSessions":null}, {"name":"Bánov","state":"Nitriansky","territory":"","country":"Slovakia","latitude":48.0477618,"longitude":18.1917346,"population":3730,"stateCapital":false,"nationalCapital":false,"pk":null,"quiz":"europe","code":null,"archived":false,"percentageOfSessions":null}, {"name":"Bánová","state":"Žilinský","territory":"","country":"Slovakia","latitude":49.1931952,"longitude":18.7023557,"population":1810,"stateCapital":false,"nationalCapital":false,"pk":null,"quiz":"europe","code":null,"archived":false,"percentageOfSessions":null}, {"name":"Bánovce nad Bebravou","state":"Trenčiansky","territory":"","country":"Slovakia","latitude":48.7241334,"longitude":18.2653716,"population":17258,"stateCapital":false,"nationalCapital":false,"pk":null,"quiz":"europe","code":null,"archived":false,"percentageOfSessions":null}, {"name":"Bánovce nad Ondavou","state":"Košický","territory":"","country":"Slovakia","latitude":48.6700055,"longitude":21.8160556,"population":699,"stateCapital":false,"nationalCapital":false,"pk":null,"quiz":"europe","code":null,"archived":false,"percentageOfSessions":null}, {"name":"Banská","state":"Trenčiansky","territory":"","country":"Slovakia","latitude":48.7682874,"longitude":18.6565856,"population":2,"stateCapital":false,"nationalCapital":false,"pk":null,"quiz":"europe","code":null,"archived":false,"percentageOfSessions":null}, {"name":"Banská Belá","state":"Banskobystrický","territory":"","country":"Slovakia","latitude":48.4850618,"longitude":18.9569032,"population":1244,"stateCapital":false,"nationalCapital":false,"pk":null,"quiz":"europe","code":null,"archived":false,"percentageOfSessions":null}, {"name":"Banská Bystrica","state":"Banskobystrický","territory":"","country":"Slovakia","latitude":48.7308876,"longitude":19.1531321,"population":16455,"stateCapital":true,"nationalCapital":false,"pk":null,"quiz":"europe","code":null,"archived":false,"percentageOfSessions":null}, {"name":"Banská Hodruša","state":"Banskobystrický","territory":"","country":"Slovakia","latitude":48.4601275,"longitude":18.8276685,"population":673,"stateCapital":false,"nationalCapital":false,"pk":null,"quiz":"europe","code":null,"archived":false,"percentageOfSessions":null}, {"name":"Banská Štiavnica","state":"Banskobystrický","territory":"","country":"Slovakia","latitude":48.444269,"longitude":18.9067544,"population":8755,"stateCapital":false,"nationalCapital":false,"pk":null,"quiz":"europe","code":null,"archived":false,"percentageOfSessions":null}, {"name":"Banské","state":"Prešovský","territory":"","country":"Slovakia","latitude":48.8219322,"longitude":21.5585741,"population":1713,"stateCapital":false,"nationalCapital":false,"pk":null,"quiz":"europe","code":null,"archived":false,"percentageOfSessions":null}, {"name":"Banský Studenec","state":"Banskobystrický","territory":"","country":"Slovakia","latitude":48.453365,"longitude":18.9701898,"population":452,"stateCapital":false,"nationalCapital":false,"pk":null,"quiz":"europe","code":null,"archived":false,"percentageOfSessions":null}, {"name":"Baranie","state":"Prešovský","territory":"","country":"Slovakia","latitude":49.1719263,"longitude":21.145404,"population":0,"stateCapital":false,"nationalCapital":false,"pk":null,"quiz":"europe","code":null,"archived":false,"percentageOfSessions":null}, {"name":"Barca","state":"Banskobystrický","territory":"","country":"Slovakia","latitude":48.364619,"longitude":20.2342725,"population":512,"stateCapital":false,"nationalCapital":false,"pk":null,"quiz":"europe","code":null,"archived":false,"percentageOfSessions":null}, {"name":"Barca","state":"Košický","territory":"","country":"Slovakia","latitude":48.669563,"longitude":21.2698402,"population":3361,"stateCapital":false,"nationalCapital":false,"pk":null,"quiz":"europe","code":null,"archived":false,"percentageOfSessions":null}, {"name":"Bardejov","state":"Prešovský","territory":"","country":"Slovakia","latitude":49.304609,"longitude":21.2730944,"population":30408,"stateCapital":false,"nationalCapital":false,"pk":null,"quiz":"europe","code":null,"archived":false,"percentageOfSessions":null}, {"name":"Bardejovská Nová Ves","state":"Prešovský","territory":"","country":"Slovakia","latitude":49.3046133,"longitude":21.3247371,"population":1606,"stateCapital":false,"nationalCapital":false,"pk":null,"quiz":"europe","code":null,"archived":false,"percentageOfSessions":null}, {"name":"Bardoňovo","state":"Nitriansky","territory":"","country":"Slovakia","latitude":48.1114945,"longitude":18.4194759,"population":786,"stateCapital":false,"nationalCapital":false,"pk":null,"quiz":"europe","code":null,"archived":false,"percentageOfSessions":null}, {"name":"Bartošova Lehôtka","state":"Banskobystrický","territory":"","country":"Slovakia","latitude":48.6509455,"longitude":18.9125757,"population":399,"stateCapital":false,"nationalCapital":false,"pk":null,"quiz":"europe","code":null,"archived":false,"percentageOfSessions":null}, {"name":"Bartošovce","state":"Prešovský","territory":"","country":"Slovakia","latitude":49.2026604,"longitude":21.271783,"population":724,"stateCapital":false,"nationalCapital":false,"pk":null,"quiz":"europe","code":null,"archived":false,"percentageOfSessions":null}, {"name":"Baška","state":"Košický","territory":"","country":"Slovakia","latitude":48.7097273,"longitude":21.1807331,"population":437,"stateCapital":false,"nationalCapital":false,"pk":null,"quiz":"europe","code":null,"archived":false,"percentageOfSessions":null}, {"name":"Baškovce","state":"Prešovský","territory":"","country":"Slovakia","latitude":49.0310424,"longitude":21.843298,"population":428,"stateCapital":false,"nationalCapital":false,"pk":null,"quiz":"europe","code":null,"archived":false,"percentageOfSessions":null}, {"name":"Baškovce","state":"Košický","territory":"","country":"Slovakia","latitude":48.7867912,"longitude":22.198879,"population":259,"stateCapital":false,"nationalCapital":false,"pk":null,"quiz":"europe","code":null,"archived":false,"percentageOfSessions":null}, {"name":"Bašovce","state":"Trnavský","territory":"","country":"Slovakia","latitude":48.6308637,"longitude":17.8073873,"population":340,"stateCapital":false,"nationalCapital":false,"pk":null,"quiz":"europe","code":null,"archived":false,"percentageOfSessions":null}, {"name":"Baštín","state":"Trenčiansky","territory":"","country":"Slovakia","latitude":48.5583647,"longitude":18.2363507,"population":106,"stateCapital":false,"nationalCapital":false,"pk":null,"quiz":"europe","code":null,"archived":false,"percentageOfSessions":null}, {"name":"Batizovce","state":"Prešovský","territory":"","country":"Slovakia","latitude":49.080768,"longitude":20.1794142,"population":2322,"stateCapital":false,"nationalCapital":false,"pk":null,"quiz":"europe","code":null,"archived":false,"percentageOfSessions":null}, {"name":"Bátka","state":"Banskobystrický","territory":"","country":"Slovakia","latitude":48.3684483,"longitude":20.1605168,"population":968,"stateCapital":false,"nationalCapital":false,"pk":null,"quiz":"europe","code":null,"archived":false,"percentageOfSessions":null}, {"name":"Bátorová","state":"Banskobystrický","territory":"","country":"Slovakia","latitude":48.1357403,"longitude":19.2691108,"population":362,"stateCapital":false,"nationalCapital":false,"pk":null,"quiz":"europe","code":null,"archived":false,"percentageOfSessions":null}, {"name":"Bátovce","state":"Nitriansky","territory":"","country":"Slovakia","latitude":48.2899125,"longitude":18.7719422,"population":985,"stateCapital":false,"nationalCapital":false,"pk":null,"quiz":"europe","code":null,"archived":false,"percentageOfSessions":null}, {"name":"Becherov","state":"Prešovský","territory":"","country":"Slovakia","latitude":49.4337937,"longitude":21.3101274,"population":279,"stateCapital":false,"nationalCapital":false,"pk":null,"quiz":"europe","code":null,"archived":false,"percentageOfSessions":null}, {"name":"Beckov","state":"Trenčiansky","territory":"","country":"Slovakia","latitude":48.7850781,"longitude":17.9071433,"population":1343,"stateCapital":false,"nationalCapital":false,"pk":null,"quiz":"europe","code":null,"archived":false,"percentageOfSessions":null}, {"name":"Beckovská Vieska","state":"Trenčiansky","territory":"","country":"Slovakia","latitude":48.7474374,"longitude":17.8908025,"population":523,"stateCapital":false,"nationalCapital":false,"pk":null,"quiz":"europe","code":null,"archived":false,"percentageOfSessions":null}, {"name":"Bečov","state":"Banskobystrický","territory":"","country":"Slovakia","latitude":48.6501504,"longitude":19.2525025,"population":164,"stateCapital":false,"nationalCapital":false,"pk":null,"quiz":"europe","code":null,"archived":false,"percentageOfSessions":null}, {"name":"Beharovce","state":"Prešovský","territory":"","country":"Slovakia","latitude":49.0069168,"longitude":20.819686,"population":178,"stateCapital":false,"nationalCapital":false,"pk":null,"quiz":"europe","code":null,"archived":false,"percentageOfSessions":null}, {"name":"Behynce","state":"Nitriansky","territory":"","country":"Slovakia","latitude":48.5215329,"longitude":17.9672648,"population":392,"stateCapital":false,"nationalCapital":false,"pk":null,"quiz":"europe","code":null,"archived":false,"percentageOfSessions":null}, {"name":"Behynce","state":"Banskobystrický","territory":"","country":"Slovakia","latitude":48.4271646,"longitude":20.291407,"population":442,"stateCapital":false,"nationalCapital":false,"pk":null,"quiz":"europe","code":null,"archived":false,"percentageOfSessions":null}, {"name":"Beketfa","state":"Trnavský","territory":"","country":"Slovakia","latitude":47.9918454,"longitude":17.5025182,"population":91,"stateCapital":false,"nationalCapital":false,"pk":null,"quiz":"europe","code":null,"archived":false,"percentageOfSessions":null}, {"name":"Belá","state":"Nitriansky","territory":"","country":"Slovakia","latitude":47.8284303,"longitude":18.5819504,"population":370,"stateCapital":false,"nationalCapital":false,"pk":null,"quiz":"europe","code":null,"archived":false,"percentageOfSessions":null}, {"name":"Belá","state":"Žilinský","territory":"","country":"Slovakia","latitude":48.9787325,"longitude":19.0389896,"population":958,"stateCapital":false,"nationalCapital":false,"pk":null,"quiz":"europe","code":null,"archived":false,"percentageOfSessions":null}, {"name":"Belá","state":"Žilinský","territory":"","country":"Slovakia","latitude":48.9787325,"longitude":19.0389896,"population":3092,"stateCapital":false,"nationalCapital":false,"pk":null,"quiz":"europe","code":null,"archived":false,"percentageOfSessions":null}, {"name":"Belá nad Cirochou","state":"Prešovský","territory":"","country":"Slovakia","latitude":48.9683543,"longitude":22.1053804,"population":3373,"stateCapital":false,"nationalCapital":false,"pk":null,"quiz":"europe","code":null,"archived":false,"percentageOfSessions":null}, {"name":"Beladice","state":"Nitriansky","territory":"","country":"Slovakia","latitude":48.3360567,"longitude":18.2858269,"population":327,"stateCapital":false,"nationalCapital":false,"pk":null,"quiz":"europe","code":null,"archived":false,"percentageOfSessions":null}, {"name":"Belejov","state":"Trenčiansky","territory":"","country":"Slovakia","latitude":49.23154,"longitude":18.3246517,"population":88,"stateCapital":false,"nationalCapital":false,"pk":null,"quiz":"europe","code":null,"archived":false,"percentageOfSessions":null}, {"name":"Belejovce","state":"Prešovský","territory":"","country":"Slovakia","latitude":49.3744104,"longitude":21.5422851,"population":23,"stateCapital":false,"nationalCapital":false,"pk":null,"quiz":"europe","code":null,"archived":false,"percentageOfSessions":null}, {"name":"Belín","state":"Banskobystrický","territory":"","country":"Slovakia","latitude":48.3430833,"longitude":20.1105699,"population":193,"stateCapital":false,"nationalCapital":false,"pk":null,"quiz":"europe","code":null,"archived":false,"percentageOfSessions":null}, {"name":"Belina","state":"Banskobystrický","territory":"","country":"Slovakia","latitude":48.2361934,"longitude":19.8504416,"population":642,"stateCapital":false,"nationalCapital":false,"pk":null,"quiz":"europe","code":null,"archived":false,"percentageOfSessions":null}, {"name":"Belince","state":"Nitriansky","territory":"","country":"Slovakia","latitude":48.4625085,"longitude":18.0930518,"population":316,"stateCapital":false,"nationalCapital":false,"pk":null,"quiz":"europe","code":null,"archived":false,"percentageOfSessions":null}, {"name":"Bellova Ves","state":"Trnavský","territory":"","country":"Slovakia","latitude":48.0872024,"longitude":17.5141599,"population":229,"stateCapital":false,"nationalCapital":false,"pk":null,"quiz":"europe","code":null,"archived":false,"percentageOfSessions":null}, {"name":"Beloveža","state":"Prešovský","territory":"","country":"Slovakia","latitude":49.3046301,"longitude":21.3618267,"population":829,"stateCapital":false,"nationalCapital":false,"pk":null,"quiz":"europe","code":null,"archived":false,"percentageOfSessions":null}, {"name":"Beluj","state":"Banskobystrický","territory":"","country":"Slovakia","latitude":48.3545125,"longitude":18.8915368,"population":131,"stateCapital":false,"nationalCapital":false,"pk":null,"quiz":"europe","code":null,"archived":false,"percentageOfSessions":null}, {"name":"Beluša","state":"Trenčiansky","territory":"","country":"Slovakia","latitude":49.0556143,"longitude":18.3479951,"population":4878,"stateCapital":false,"nationalCapital":false,"pk":null,"quiz":"europe","code":null,"archived":false,"percentageOfSessions":null}, {"name":"Belža","state":"Košický","territory":"","country":"Slovakia","latitude":48.5850164,"longitude":21.2713123,"population":379,"stateCapital":false,"nationalCapital":false,"pk":null,"quiz":"europe","code":null,"archived":false,"percentageOfSessions":null}, {"name":"Beňadiková","state":"Žilinský","territory":"","country":"Slovakia","latitude":49.0812126,"longitude":19.6849008,"population":466,"stateCapital":false,"nationalCapital":false,"pk":null,"quiz":"europe","code":null,"archived":false,"percentageOfSessions":null}, {"name":"Beňadikovce","state":"Prešovský","territory":"","country":"Slovakia","latitude":49.2298693,"longitude":21.5502169,"population":230,"stateCapital":false,"nationalCapital":false,"pk":null,"quiz":"europe","code":null,"archived":false,"percentageOfSessions":null}, {"name":"Beňadovo","state":"Žilinský","territory":"","country":"Slovakia","latitude":49.4336912,"longitude":19.3560028,"population":772,"stateCapital":false,"nationalCapital":false,"pk":null,"quiz":"europe","code":null,"archived":false,"percentageOfSessions":null}, {"name":"Beňatina","state":"Košický","territory":"","country":"Slovakia","latitude":48.799602,"longitude":22.3320168,"population":199,"stateCapital":false,"nationalCapital":false,"pk":null,"quiz":"europe","code":null,"archived":false,"percentageOfSessions":null}, {"name":"Beniakovce","state":"Košický","territory":"","country":"Slovakia","latitude":48.7652225,"longitude":21.3123388,"population":619,"stateCapital":false,"nationalCapital":false,"pk":null,"quiz":"europe","code":null,"archived":false,"percentageOfSessions":null}, {"name":"Benice","state":"Žilinský","territory":"","country":"Slovakia","latitude":49.0761122,"longitude":19.5569957,"population":153,"stateCapital":false,"nationalCapital":false,"pk":null,"quiz":"europe","code":null,"archived":false,"percentageOfSessions":null}, {"name":"Benice","state":"Žilinský","territory":"","country":"Slovakia","latitude":49.0761122,"longitude":19.5569957,"population":324,"stateCapital":false,"nationalCapital":false,"pk":null,"quiz":"europe","code":null,"archived":false,"percentageOfSessions":null}, {"name":"Benkova Potôň","state":"Trnavský","territory":"","country":"Slovakia","latitude":48.0461597,"longitude":17.512533,"population":729,"stateCapital":false,"nationalCapital":false,"pk":null,"quiz":"europe","code":null,"archived":false,"percentageOfSessions":null}, {"name":"Benkovce","state":"Prešovský","territory":"","country":"Slovakia","latitude":48.9417778,"longitude":21.7092948,"population":532,"stateCapital":false,"nationalCapital":false,"pk":null,"quiz":"europe","code":null,"archived":false,"percentageOfSessions":null}, {"name":"Beňova Lehota","state":"Žilinský","territory":"","country":"Slovakia","latitude":49.2432356,"longitude":19.261676,"population":164,"stateCapital":false,"nationalCapital":false,"pk":null,"quiz":"europe","code":null,"archived":false,"percentageOfSessions":null}, {"name":"Beňuš","state":"Banskobystrický","territory":"","country":"Slovakia","latitude":48.8383087,"longitude":19.7346376,"population":547,"stateCapital":false,"nationalCapital":false,"pk":null,"quiz":"europe","code":null,"archived":false,"percentageOfSessions":null}, {"name":"Beňušovce","state":"Žilinský","territory":"","country":"Slovakia","latitude":49.1428765,"longitude":19.5524139,"population":7,"stateCapital":false,"nationalCapital":false,"pk":null,"quiz":"europe","code":null,"archived":false,"percentageOfSessions":null}, {"name":"Bernátovce","state":"Košický","territory":"","country":"Slovakia","latitude":48.641208,"longitude":21.2962779,"population":946,"stateCapital":false,"nationalCapital":false,"pk":null,"quiz":"europe","code":null,"archived":false,"percentageOfSessions":null}, {"name":"Bernolákovo","state":"Bratislavský","territory":"","country":"Slovakia","latitude":48.196847,"longitude":17.3017393,"population":5385,"stateCapital":false,"nationalCapital":false,"pk":null,"quiz":"europe","code":null,"archived":false,"percentageOfSessions":null}, {"name":"Bertotovce","state":"Prešovský","territory":"","country":"Slovakia","latitude":49.0233392,"longitude":21.01828,"population":491,"stateCapital":false,"nationalCapital":false,"pk":null,"quiz":"europe","code":null,"archived":false,"percentageOfSessions":null}, {"name":"Beša","state":"Nitriansky","territory":"","country":"Slovakia","latitude":48.150587,"longitude":18.4032961,"population":343,"stateCapital":false,"nationalCapital":false,"pk":null,"quiz":"europe","code":null,"archived":false,"percentageOfSessions":null}, {"name":"Beša","state":"Košický","territory":"","country":"Slovakia","latitude":48.5305047,"longitude":21.9480361,"population":363,"stateCapital":false,"nationalCapital":false,"pk":null,"quiz":"europe","code":null,"archived":false,"percentageOfSessions":null}, {"name":"Bešeňov","state":"Nitriansky","territory":"","country":"Slovakia","latitude":48.0440138,"longitude":18.271796,"population":1695,"stateCapital":false,"nationalCapital":false,"pk":null,"quiz":"europe","code":null,"archived":false,"percentageOfSessions":null}, {"name":"Bešeňová","state":"Žilinský","territory":"","country":"Slovakia","latitude":49.1143907,"longitude":19.4410989,"population":562,"stateCapital":false,"nationalCapital":false,"pk":null,"quiz":"europe","code":null,"archived":false,"percentageOfSessions":null}, {"name":"Besné","state":"Trenčiansky","territory":"","country":"Slovakia","latitude":49.2200874,"longitude":18.3689262,"population":234,"stateCapital":false,"nationalCapital":false,"pk":null,"quiz":"europe","code":null,"archived":false,"percentageOfSessions":null}, {"name":"Betlanovce","state":"Košický","territory":"","country":"Slovakia","latitude":48.9632555,"longitude":20.350316,"population":678,"stateCapital":false,"nationalCapital":false,"pk":null,"quiz":"europe","code":null,"archived":false,"percentageOfSessions":null}, {"name":"Betlenovce","state":"Košický","territory":"","country":"Slovakia","latitude":48.7252236,"longitude":21.9167751,"population":8,"stateCapital":false,"nationalCapital":false,"pk":null,"quiz":"europe","code":null,"archived":false,"percentageOfSessions":null}, {"name":"Betliar","state":"Košický","territory":"","country":"Slovakia","latitude":48.7237373,"longitude":20.5268512,"population":931,"stateCapital":false,"nationalCapital":false,"pk":null,"quiz":"europe","code":null,"archived":false,"percentageOfSessions":null}, {"name":"Bežovce","state":"Košický","territory":"","country":"Slovakia","latitude":48.6476995,"longitude":22.1294953,"population":1023,"stateCapital":false,"nationalCapital":false,"pk":null,"quiz":"europe","code":null,"archived":false,"percentageOfSessions":null}, {"name":"Bidovce","state":"Košický","territory":"","country":"Slovakia","latitude":48.742707,"longitude":21.4376214,"population":1371,"stateCapital":false,"nationalCapital":false,"pk":null,"quiz":"europe","code":null,"archived":false,"percentageOfSessions":null}, {"name":"Biel","state":"Košický","territory":"","country":"Slovakia","latitude":48.405496,"longitude":22.0575345,"population":1474,"stateCapital":false,"nationalCapital":false,"pk":null,"quiz":"europe","code":null,"archived":false,"percentageOfSessions":null}, {"name":"Biela","state":"Žilinský","territory":"","country":"Slovakia","latitude":49.2436038,"longitude":19.1378402,"population":177,"stateCapital":false,"nationalCapital":false,"pk":null,"quiz":"europe","code":null,"archived":false,"percentageOfSessions":null}, {"name":"Biela Voda","state":"Trenčiansky","territory":"","country":"Slovakia","latitude":49.2023604,"longitude":18.1584677,"population":55,"stateCapital":false,"nationalCapital":false,"pk":null,"quiz":"europe","code":null,"archived":false,"percentageOfSessions":null}, {"name":"Biele Vody","state":"Banskobystrický","territory":"","country":"Slovakia","latitude":48.6222551,"longitude":19.6238038,"population":21,"stateCapital":false,"nationalCapital":false,"pk":null,"quiz":"europe","code":null,"archived":false,"percentageOfSessions":null}, {"name":"Biele Vody","state":"Košický","territory":"","country":"Slovakia","latitude":48.8679607,"longitude":20.3983637,"population":182,"stateCapital":false,"nationalCapital":false,"pk":null,"quiz":"europe","code":null,"archived":false,"percentageOfSessions":null}, {"name":"Bielovce","state":"Nitriansky","territory":"","country":"Slovakia","latitude":47.9943284,"longitude":18.771429,"population":232,"stateCapital":false,"nationalCapital":false,"pk":null,"quiz":"europe","code":null,"archived":false,"percentageOfSessions":null}, {"name":"Biely Kostol","state":"Trnavský","territory":"","country":"Slovakia","latitude":48.3651838,"longitude":17.5286566,"population":1453,"stateCapital":false,"nationalCapital":false,"pk":null,"quiz":"europe","code":null,"archived":false,"percentageOfSessions":null}, {"name":"Biely Potok","state":"Žilinský","territory":"","country":"Slovakia","latitude":49.024008,"longitude":19.2777807,"population":1392,"stateCapital":false,"nationalCapital":false,"pk":null,"quiz":"europe","code":null,"archived":false,"percentageOfSessions":null}, {"name":"Bijacovce","state":"Prešovský","territory":"","country":"Slovakia","latitude":49.0437021,"longitude":20.8115678,"population":898,"stateCapital":false,"nationalCapital":false,"pk":null,"quiz":"europe","code":null,"archived":false,"percentageOfSessions":null}, {"name":"Bílkove Humence","state":"Trnavský","territory":"","country":"Slovakia","latitude":48.5896704,"longitude":17.2415101,"population":221,"stateCapital":false,"nationalCapital":false,"pk":null,"quiz":"europe","code":null,"archived":false,"percentageOfSessions":null}, {"name":"Bíňa","state":"Nitriansky","territory":"","country":"Slovakia","latitude":47.9244304,"longitude":18.6475848,"population":1407,"stateCapital":false,"nationalCapital":false,"pk":null,"quiz":"europe","code":null,"archived":false,"percentageOfSessions":null}, {"name":"Bindt","state":"Košický","territory":"","country":"Slovakia","latitude":48.8706316,"longitude":20.5787888,"population":32,"stateCapital":false,"nationalCapital":false,"pk":null,"quiz":"europe","code":null,"archived":false,"percentageOfSessions":null}, {"name":"Bíňovce","state":"Trnavský","territory":"","country":"Slovakia","latitude":48.4969869,"longitude":17.4970506,"population":669,"stateCapital":false,"nationalCapital":false,"pk":null,"quiz":"europe","code":null,"archived":false,"percentageOfSessions":null}, {"name":"Biskupice","state":"Trenčiansky","territory":"","country":"Slovakia","latitude":48.7079428,"longitude":18.2516193,"population":366,"stateCapital":false,"nationalCapital":false,"pk":null,"quiz":"europe","code":null,"archived":false,"percentageOfSessions":null}, {"name":"Biskupice","state":"Trenčiansky","territory":"","country":"Slovakia","latitude":48.7079428,"longitude":18.2516193,"population":674,"stateCapital":false,"nationalCapital":false,"pk":null,"quiz":"europe","code":null,"archived":false,"percentageOfSessions":null}, {"name":"Biskupice","state":"Banskobystrický","territory":"","country":"Slovakia","latitude":48.2456549,"longitude":19.8257322,"population":1138,"stateCapital":false,"nationalCapital":false,"pk":null,"quiz":"europe","code":null,"archived":false,"percentageOfSessions":null}, {"name":"Biskupová","state":"Nitriansky","territory":"","country":"Slovakia","latitude":48.4626783,"longitude":17.9837505,"population":220,"stateCapital":false,"nationalCapital":false,"pk":null,"quiz":"europe","code":null,"archived":false,"percentageOfSessions":null}, {"name":"Bitarová","state":"Žilinský","territory":"","country":"Slovakia","latitude":49.2086517,"longitude":18.6710679,"population":675,"stateCapital":false,"nationalCapital":false,"pk":null,"quiz":"europe","code":null,"archived":false,"percentageOfSessions":null}, {"name":"Blahová","state":"Trnavský","territory":"","country":"Slovakia","latitude":48.0939217,"longitude":17.5550136,"population":356,"stateCapital":false,"nationalCapital":false,"pk":null,"quiz":"europe","code":null,"archived":false,"percentageOfSessions":null}, {"name":"Blatná na Ostrove","state":"Trnavský","territory":"","country":"Slovakia","latitude":47.994433,"longitude":17.4358444,"population":860,"stateCapital":false,"nationalCapital":false,"pk":null,"quiz":"europe","code":null,"archived":false,"percentageOfSessions":null}, {"name":"Blatná Polianka","state":"Košický","territory":"","country":"Slovakia","latitude":48.6887622,"longitude":22.1084801,"population":169,"stateCapital":false,"nationalCapital":false,"pk":null,"quiz":"europe","code":null,"archived":false,"percentageOfSessions":null}, {"name":"Blatné","state":"Bratislavský","territory":"","country":"Slovakia","latitude":48.2708974,"longitude":17.4082253,"population":1626,"stateCapital":false,"nationalCapital":false,"pk":null,"quiz":"europe","code":null,"archived":false,"percentageOfSessions":null}, {"name":"Blatné Remety","state":"Košický","territory":"","country":"Slovakia","latitude":48.7095239,"longitude":22.1019964,"population":623,"stateCapital":false,"nationalCapital":false,"pk":null,"quiz":"europe","code":null,"archived":false,"percentageOfSessions":null}, {"name":"Blatné Revištia","state":"Košický","territory":"","country":"Slovakia","latitude":48.7355755,"longitude":22.0769881,"population":217,"stateCapital":false,"nationalCapital":false,"pk":null,"quiz":"europe","code":null,"archived":false,"percentageOfSessions":null}, {"name":"Blatnica","state":"Žilinský","territory":"","country":"Slovakia","latitude":48.9234284,"longitude":18.987868,"population":911,"stateCapital":false,"nationalCapital":false,"pk":null,"quiz":"europe","code":null,"archived":false,"percentageOfSessions":null}, {"name":"Blato","state":"Banskobystrický","territory":"","country":"Slovakia","latitude":48.6864866,"longitude":19.8080173,"population":126,"stateCapital":false,"nationalCapital":false,"pk":null,"quiz":"europe","code":null,"archived":false,"percentageOfSessions":null}, {"name":"Blažice","state":"Košický","territory":"","country":"Slovakia","latitude":48.6718614,"longitude":21.417727,"population":559,"stateCapital":false,"nationalCapital":false,"pk":null,"quiz":"europe","code":null,"archived":false,"percentageOfSessions":null}, {"name":"Blažkov","state":"Žilinský","territory":"","country":"Slovakia","latitude":49.3744847,"longitude":18.8432299,"population":634,"stateCapital":false,"nationalCapital":false,"pk":null,"quiz":"europe","code":null,"archived":false,"percentageOfSessions":null}, {"name":"Blažov","state":"Trnavský","territory":"","country":"Slovakia","latitude":47.9811478,"longitude":17.6705842,"population":277,"stateCapital":false,"nationalCapital":false,"pk":null,"quiz":"europe","code":null,"archived":false,"percentageOfSessions":null}, {"name":"Blažovce","state":"Žilinský","territory":"","country":"Slovakia","latitude":48.9398525,"longitude":18.8445931,"population":163,"stateCapital":false,"nationalCapital":false,"pk":null,"quiz":"europe","code":null,"archived":false,"percentageOfSessions":null}, {"name":"Blesovce","state":"Nitriansky","territory":"","country":"Slovakia","latitude":48.5574934,"longitude":18.040027,"population":334,"stateCapital":false,"nationalCapital":false,"pk":null,"quiz":"europe","code":null,"archived":false,"percentageOfSessions":null}, {"name":"Blhovce","state":"Banskobystrický","territory":"","country":"Slovakia","latitude":48.2714086,"longitude":19.9404587,"population":791,"stateCapital":false,"nationalCapital":false,"pk":null,"quiz":"europe","code":null,"archived":false,"percentageOfSessions":null}, {"name":"Bobot","state":"Trenčiansky","territory":"","country":"Slovakia","latitude":48.8324028,"longitude":18.1999201,"population":462,"stateCapital":false,"nationalCapital":false,"pk":null,"quiz":"europe","code":null,"archived":false,"percentageOfSessions":null}, {"name":"Bobotská Lehota","state":"Trenčiansky","territory":"","country":"Slovakia","latitude":48.8078215,"longitude":18.2052498,"population":293,"stateCapital":false,"nationalCapital":false,"pk":null,"quiz":"europe","code":null,"archived":false,"percentageOfSessions":null}, {"name":"Bobrov","state":"Žilinský","territory":"","country":"Slovakia","latitude":49.4511303,"longitude":19.5570085,"population":1643,"stateCapital":false,"nationalCapital":false,"pk":null,"quiz":"europe","code":null,"archived":false,"percentageOfSessions":null}, {"name":"Bobrovček","state":"Žilinský","territory":"","country":"Slovakia","latitude":49.1435552,"longitude":19.600219,"population":174,"stateCapital":false,"nationalCapital":false,"pk":null,"quiz":"europe","code":null,"archived":false,"percentageOfSessions":null}, {"name":"Bobrovec","state":"Žilinský","territory":"","country":"Slovakia","latitude":49.1647291,"longitude":19.6232441,"population":1781,"stateCapital":false,"nationalCapital":false,"pk":null,"quiz":"europe","code":null,"archived":false,"percentageOfSessions":null}, {"name":"Bobrovník","state":"Žilinský","territory":"","country":"Slovakia","latitude":49.1206864,"longitude":19.4804997,"population":76,"stateCapital":false,"nationalCapital":false,"pk":null,"quiz":"europe","code":null,"archived":false,"percentageOfSessions":null}, {"name":"Bočiar","state":"Košický","territory":"","country":"Slovakia","latitude":48.5922255,"longitude":21.2360589,"population":226,"stateCapital":false,"nationalCapital":false,"pk":null,"quiz":"europe","code":null,"archived":false,"percentageOfSessions":null}, {"name":"Bodice","state":"Žilinský","territory":"","country":"Slovakia","latitude":49.0529521,"longitude":19.568224,"population":420,"stateCapital":false,"nationalCapital":false,"pk":null,"quiz":"europe","code":null,"archived":false,"percentageOfSessions":null}, {"name":"Bodíky","state":"Trnavský","territory":"","country":"Slovakia","latitude":47.9145568,"longitude":17.458427,"population":288,"stateCapital":false,"nationalCapital":false,"pk":null,"quiz":"europe","code":null,"archived":false,"percentageOfSessions":null}, {"name":"Bodiná","state":"Trenčiansky","territory":"","country":"Slovakia","latitude":49.1095952,"longitude":18.5655371,"population":496,"stateCapital":false,"nationalCapital":false,"pk":null,"quiz":"europe","code":null,"archived":false,"percentageOfSessions":null}, {"name":"Bodok","state":"Nitriansky","territory":"","country":"Slovakia","latitude":48.5060463,"longitude":18.0608301,"population":93,"stateCapital":false,"nationalCapital":false,"pk":null,"quiz":"europe","code":null,"archived":false,"percentageOfSessions":null}, {"name":"Bodorová","state":"Žilinský","territory":"","country":"Slovakia","latitude":48.9042738,"longitude":18.8592741,"population":200,"stateCapital":false,"nationalCapital":false,"pk":null,"quiz":"europe","code":null,"archived":false,"percentageOfSessions":null}, {"name":"Bodovce","state":"Prešovský","territory":"","country":"Slovakia","latitude":49.1308666,"longitude":21.1754161,"population":319,"stateCapital":false,"nationalCapital":false,"pk":null,"quiz":"europe","code":null,"archived":false,"percentageOfSessions":null}, {"name":"Bodrog","state":"Košický","territory":"","country":"Slovakia","latitude":48.4320837,"longitude":21.8446505,"population":275,"stateCapital":false,"nationalCapital":false,"pk":null,"quiz":"europe","code":null,"archived":false,"percentageOfSessions":null}, {"name":"Bodružal","state":"Prešovský","territory":"","country":"Slovakia","latitude":49.3519242,"longitude":21.7106924,"population":59,"stateCapital":false,"nationalCapital":false,"pk":null,"quiz":"europe","code":null,"archived":false,"percentageOfSessions":null}, {"name":"Bodza","state":"Nitriansky","territory":"","country":"Slovakia","latitude":47.8510967,"longitude":17.8609071,"population":372,"stateCapital":false,"nationalCapital":false,"pk":null,"quiz":"europe","code":null,"archived":false,"percentageOfSessions":null}, {"name":"Bodzianske Lúky","state":"Nitriansky","territory":"","country":"Slovakia","latitude":47.8889507,"longitude":17.9018307,"population":203,"stateCapital":false,"nationalCapital":false,"pk":null,"quiz":"europe","code":null,"archived":false,"percentageOfSessions":null}, {"name":"Bogliarka","state":"Prešovský","territory":"","country":"Slovakia","latitude":49.2722839,"longitude":21.1390599,"population":136,"stateCapital":false,"nationalCapital":false,"pk":null,"quiz":"europe","code":null,"archived":false,"percentageOfSessions":null}, {"name":"Bohatá","state":"Nitriansky","territory":"","country":"Slovakia","latitude":47.8945871,"longitude":18.2192913,"population":2255,"stateCapital":false,"nationalCapital":false,"pk":null,"quiz":"europe","code":null,"archived":false,"percentageOfSessions":null}, {"name":"Bohdanovce","state":"Košický","territory":"","country":"Slovakia","latitude":48.6544222,"longitude":21.4040332,"population":1033,"stateCapital":false,"nationalCapital":false,"pk":null,"quiz":"europe","code":null,"archived":false,"percentageOfSessions":null}, {"name":"Bohdanovce nad Trnavou","state":"Trnavský","territory":"","country":"Slovakia","latitude":48.4336114,"longitude":17.5489275,"population":1171,"stateCapital":false,"nationalCapital":false,"pk":null,"quiz":"europe","code":null,"archived":false,"percentageOfSessions":null}, {"name":"Boheľov","state":"Trnavský","territory":"","country":"Slovakia","latitude":47.9077532,"longitude":17.6975514,"population":351,"stateCapital":false,"nationalCapital":false,"pk":null,"quiz":"europe","code":null,"archived":false,"percentageOfSessions":null}, {"name":"Bohunice","state":"Trnavský","territory":"","country":"Slovakia","latitude":48.4779551,"longitude":17.6460576,"population":1350,"stateCapital":false,"nationalCapital":false,"pk":null,"quiz":"europe","code":null,"archived":false,"percentageOfSessions":null}, {"name":"Bohunice","state":"Trenčiansky","territory":"","country":"Slovakia","latitude":49.0264051,"longitude":18.1864273,"population":734,"stateCapital":false,"nationalCapital":false,"pk":null,"quiz":"europe","code":null,"archived":false,"percentageOfSessions":null}, {"name":"Bohunice","state":"Nitriansky","territory":"","country":"Slovakia","latitude":48.3490838,"longitude":18.7576208,"population":140,"stateCapital":false,"nationalCapital":false,"pk":null,"quiz":"europe","code":null,"archived":false,"percentageOfSessions":null}, {"name":"Bohúňovo","state":"Košický","territory":"","country":"Slovakia","latitude":48.5120362,"longitude":20.3990053,"population":227,"stateCapital":false,"nationalCapital":false,"pk":null,"quiz":"europe","code":null,"archived":false,"percentageOfSessions":null}, {"name":"Bojná","state":"Nitriansky","territory":"","country":"Slovakia","latitude":48.6022894,"longitude":18.0336697,"population":1632,"stateCapital":false,"nationalCapital":false,"pk":null,"quiz":"europe","code":null,"archived":false,"percentageOfSessions":null}, {"name":"Bojnice","state":"Trenčiansky","territory":"","country":"Slovakia","latitude":48.7920343,"longitude":18.5821731,"population":3791,"stateCapital":false,"nationalCapital":false,"pk":null,"quiz":"europe","code":null,"archived":false,"percentageOfSessions":null}, {"name":"Bojnice-kúpele","state":"Trenčiansky","territory":"","country":"Slovakia","latitude":48.7749971,"longitude":18.5723864,"population":70,"stateCapital":false,"nationalCapital":false,"pk":null,"quiz":"europe","code":null,"archived":false,"percentageOfSessions":null}, {"name":"Bojničky","state":"Trnavský","territory":"","country":"Slovakia","latitude":48.3903326,"longitude":17.8023672,"population":1341,"stateCapital":false,"nationalCapital":false,"pk":null,"quiz":"europe","code":null,"archived":false,"percentageOfSessions":null}, {"name":"Bokroš","state":"Nitriansky","territory":"","country":"Slovakia","latitude":47.7596092,"longitude":18.2663271,"population":7,"stateCapital":false,"nationalCapital":false,"pk":null,"quiz":"europe","code":null,"archived":false,"percentageOfSessions":null}, {"name":"Bokša","state":"Prešovský","territory":"","country":"Slovakia","latitude":49.2098913,"longitude":21.6207751,"population":403,"stateCapital":false,"nationalCapital":false,"pk":null,"quiz":"europe","code":null,"archived":false,"percentageOfSessions":null}, {"name":"Boľ","state":"Košický","territory":"","country":"Slovakia","latitude":48.475561,"longitude":21.9463866,"population":725,"stateCapital":false,"nationalCapital":false,"pk":null,"quiz":"europe","code":null,"archived":false,"percentageOfSessions":null}, {"name":"Boldog","state":"Bratislavský","territory":"","country":"Slovakia","latitude":48.2352643,"longitude":17.4326715,"population":428,"stateCapital":false,"nationalCapital":false,"pk":null,"quiz":"europe","code":null,"archived":false,"percentageOfSessions":null}, {"name":"Boleráz","state":"Trnavský","territory":"","country":"Slovakia","latitude":48.4702783,"longitude":17.4896985,"population":1688,"stateCapital":false,"nationalCapital":false,"pk":null,"quiz":"europe","code":null,"archived":false,"percentageOfSessions":null}, {"name":"Bolešov","state":"Trenčiansky","territory":"","country":"Slovakia","latitude":49.0061577,"longitude":18.1316028,"population":1526,"stateCapital":false,"nationalCapital":false,"pk":null,"quiz":"europe","code":null,"archived":false,"percentageOfSessions":null}, {"name":"Boliarov","state":"Košický","territory":"","country":"Slovakia","latitude":48.8105817,"longitude":21.4346755,"population":780,"stateCapital":false,"nationalCapital":false,"pk":null,"quiz":"europe","code":null,"archived":false,"percentageOfSessions":null}, {"name":"Boľkovce","state":"Banskobystrický","territory":"","country":"Slovakia","latitude":48.3365828,"longitude":19.7421063,"population":650,"stateCapital":false,"nationalCapital":false,"pk":null,"quiz":"europe","code":null,"archived":false,"percentageOfSessions":null}, {"name":"Borčany","state":"Trenčiansky","territory":"","country":"Slovakia","latitude":48.6620316,"longitude":18.2225459,"population":236,"stateCapital":false,"nationalCapital":false,"pk":null,"quiz":"europe","code":null,"archived":false,"percentageOfSessions":null}, {"name":"Borčice","state":"Trenčiansky","territory":"","country":"Slovakia","latitude":48.9915662,"longitude":18.1290475,"population":420,"stateCapital":false,"nationalCapital":false,"pk":null,"quiz":"europe","code":null,"archived":false,"percentageOfSessions":null}, {"name":"Borcová","state":"Žilinský","territory":"","country":"Slovakia","latitude":48.9256403,"longitude":18.8492203,"population":126,"stateCapital":false,"nationalCapital":false,"pk":null,"quiz":"europe","code":null,"archived":false,"percentageOfSessions":null}, {"name":"Borda","state":"Košický","territory":"","country":"Slovakia","latitude":48.7545075,"longitude":21.5078833,"population":71,"stateCapital":false,"nationalCapital":false,"pk":null,"quiz":"europe","code":null,"archived":false,"percentageOfSessions":null}, {"name":"Borinka","state":"Bratislavský","territory":"","country":"Slovakia","latitude":48.2630107,"longitude":17.1107073,"population":628,"stateCapital":false,"nationalCapital":false,"pk":null,"quiz":"europe","code":null,"archived":false,"percentageOfSessions":null}, {"name":"Bôrka","state":"Košický","territory":"","country":"Slovakia","latitude":48.6442385,"longitude":20.7850585,"population":516,"stateCapital":false,"nationalCapital":false,"pk":null,"quiz":"europe","code":null,"archived":false,"percentageOfSessions":null}, {"name":"Borov","state":"Prešovský","territory":"","country":"Slovakia","latitude":49.3116763,"longitude":21.8892315,"population":228,"stateCapital":false,"nationalCapital":false,"pk":null,"quiz":"europe","code":null,"archived":false,"percentageOfSessions":null}, {"name":"Borová","state":"Trnavský","territory":"","country":"Slovakia","latitude":48.3877679,"longitude":17.4358242,"population":396,"stateCapital":false,"nationalCapital":false,"pk":null,"quiz":"europe","code":null,"archived":false,"percentageOfSessions":null}, {"name":"Borovce","state":"Trnavský","territory":"","country":"Slovakia","latitude":48.5800414,"longitude":17.7303388,"population":991,"stateCapital":false,"nationalCapital":false,"pk":null,"quiz":"europe","code":null,"archived":false,"percentageOfSessions":null}, {"name":"Borša","state":"Košický","territory":"","country":"Slovakia","latitude":48.3950356,"longitude":21.7030765,"population":1214,"stateCapital":false,"nationalCapital":false,"pk":null,"quiz":"europe","code":null,"archived":false,"percentageOfSessions":null}, {"name":"Borský Mikuláš","state":"Trnavský","territory":"","country":"Slovakia","latitude":48.6190836,"longitude":17.2141194,"population":2333,"stateCapital":false,"nationalCapital":false,"pk":null,"quiz":"europe","code":null,"archived":false,"percentageOfSessions":null}, {"name":"Borský Peter","state":"Trnavský","territory":"","country":"Slovakia","latitude":48.6276975,"longitude":17.2514718,"population":1600,"stateCapital":false,"nationalCapital":false,"pk":null,"quiz":"europe","code":null,"archived":false,"percentageOfSessions":null}, {"name":"Borský Svätý Jur","state":"Trnavský","territory":"","country":"Slovakia","latitude":48.5984645,"longitude":17.0511583,"population":1628,"stateCapital":false,"nationalCapital":false,"pk":null,"quiz":"europe","code":null,"archived":false,"percentageOfSessions":null}, {"name":"Bory","state":"Nitriansky","territory":"","country":"Slovakia","latitude":48.1911657,"longitude":18.750174,"population":313,"stateCapital":false,"nationalCapital":false,"pk":null,"quiz":"europe","code":null,"archived":false,"percentageOfSessions":null}, {"name":"Bošáca","state":"Trenčiansky","territory":"","country":"Slovakia","latitude":48.8508197,"longitude":17.8317704,"population":1250,"stateCapital":false,"nationalCapital":false,"pk":null,"quiz":"europe","code":null,"archived":false,"percentageOfSessions":null}, {"name":"Bošany","state":"Trenčiansky","territory":"","country":"Slovakia","latitude":48.5802963,"longitude":18.2488386,"population":4066,"stateCapital":false,"nationalCapital":false,"pk":null,"quiz":"europe","code":null,"archived":false,"percentageOfSessions":null}, {"name":"Bošianska Neporadza","state":"Trenčiansky","territory":"","country":"Slovakia","latitude":48.8323394,"longitude":18.1539013,"population":440,"stateCapital":false,"nationalCapital":false,"pk":null,"quiz":"europe","code":null,"archived":false,"percentageOfSessions":null}, {"name":"Boťany","state":"Košický","territory":"","country":"Slovakia","latitude":48.4528079,"longitude":22.0947805,"population":1207,"stateCapital":false,"nationalCapital":false,"pk":null,"quiz":"europe","code":null,"archived":false,"percentageOfSessions":null}, {"name":"Bottovo","state":"Banskobystrický","territory":"","country":"Slovakia","latitude":48.3203022,"longitude":20.1446928,"population":204,"stateCapital":false,"nationalCapital":false,"pk":null,"quiz":"europe","code":null,"archived":false,"percentageOfSessions":null}, {"name":"Božčice","state":"Košický","territory":"","country":"Slovakia","latitude":48.7557615,"longitude":21.74788,"population":140,"stateCapital":false,"nationalCapital":false,"pk":null,"quiz":"europe","code":null,"archived":false,"percentageOfSessions":null}, {"name":"Bracovce","state":"Košický","territory":"","country":"Slovakia","latitude":48.6392023,"longitude":21.8279548,"population":960,"stateCapital":false,"nationalCapital":false,"pk":null,"quiz":"europe","code":null,"archived":false,"percentageOfSessions":null}, {"name":"Brádno","state":"Banskobystrický","territory":"","country":"Slovakia","latitude":48.5732074,"longitude":20.0110521,"population":27,"stateCapital":false,"nationalCapital":false,"pk":null,"quiz":"europe","code":null,"archived":false,"percentageOfSessions":null}, {"name":"Branč","state":"Nitriansky","territory":"","country":"Slovakia","latitude":48.2084893,"longitude":18.1481663,"population":1057,"stateCapital":false,"nationalCapital":false,"pk":null,"quiz":"europe","code":null,"archived":false,"percentageOfSessions":null}, {"name":"Branovo","state":"Nitriansky","territory":"","country":"Slovakia","latitude":48.0215201,"longitude":18.304441,"population":590,"stateCapital":false,"nationalCapital":false,"pk":null,"quiz":"europe","code":null,"archived":false,"percentageOfSessions":null}, {"name":"Bratislava","state":"Bratislavský","territory":"","country":"Slovakia","latitude":48.1516988,"longitude":17.1093063,"population":411228,"stateCapital":true,"nationalCapital":true,"pk":null,"quiz":"europe","code":null,"archived":false,"percentageOfSessions":null}, {"name":"Bratkovica","state":"Banskobystrický","territory":"","country":"Slovakia","latitude":48.5902165,"longitude":19.6270806,"population":29,"stateCapital":false,"nationalCapital":false,"pk":null,"quiz":"europe","code":null,"archived":false,"percentageOfSessions":null}, {"name":"Braväcovo","state":"Banskobystrický","territory":"","country":"Slovakia","latitude":48.8546387,"longitude":19.7520948,"population":722,"stateCapital":false,"nationalCapital":false,"pk":null,"quiz":"europe","code":null,"archived":false,"percentageOfSessions":null}, {"name":"Brdárka","state":"Košický","territory":"","country":"Slovakia","latitude":48.7605413,"longitude":20.3401938,"population":79,"stateCapital":false,"nationalCapital":false,"pk":null,"quiz":"europe","code":null,"archived":false,"percentageOfSessions":null}, {"name":"Brehov","state":"Košický","territory":"","country":"Slovakia","latitude":48.4877606,"longitude":21.8078922,"population":623,"stateCapital":false,"nationalCapital":false,"pk":null,"quiz":"europe","code":null,"archived":false,"percentageOfSessions":null}, {"name":"Brehy","state":"Banskobystrický","territory":"","country":"Slovakia","latitude":48.3991938,"longitude":18.6695053,"population":1087,"stateCapital":false,"nationalCapital":false,"pk":null,"quiz":"europe","code":null,"archived":false,"percentageOfSessions":null}, {"name":"Brekov","state":"Prešovský","territory":"","country":"Slovakia","latitude":48.9035053,"longitude":21.83962,"population":1336,"stateCapital":false,"nationalCapital":false,"pk":null,"quiz":"europe","code":null,"archived":false,"percentageOfSessions":null}, {"name":"Brestina","state":"Banskobystrický","territory":"","country":"Slovakia","latitude":48.5399166,"longitude":19.5472372,"population":43,"stateCapital":false,"nationalCapital":false,"pk":null,"quiz":"europe","code":null,"archived":false,"percentageOfSessions":null}, {"name":"Brestov","state":"Prešovský","territory":"","country":"Slovakia","latitude":48.8730566,"longitude":21.3492654,"population":573,"stateCapital":false,"nationalCapital":false,"pk":null,"quiz":"europe","code":null,"archived":false,"percentageOfSessions":null}, {"name":"Brestov","state":"Prešovský","territory":"","country":"Slovakia","latitude":48.8730566,"longitude":21.3492654,"population":443,"stateCapital":false,"nationalCapital":false,"pk":null,"quiz":"europe","code":null,"archived":false,"percentageOfSessions":null}, {"name":"Brestov nad Laborcom","state":"Prešovský","territory":"","country":"Slovakia","latitude":49.1118917,"longitude":21.9500543,"population":105,"stateCapital":false,"nationalCapital":false,"pk":null,"quiz":"europe","code":null,"archived":false,"percentageOfSessions":null}, {"name":"Brestovany","state":"Trnavský","territory":"","country":"Slovakia","latitude":48.3855572,"longitude":17.690227,"population":1782,"stateCapital":false,"nationalCapital":false,"pk":null,"quiz":"europe","code":null,"archived":false,"percentageOfSessions":null}, {"name":"Brestové","state":"Trenčiansky","territory":"","country":"Slovakia","latitude":48.8385636,"longitude":17.769172,"population":298,"stateCapital":false,"nationalCapital":false,"pk":null,"quiz":"europe","code":null,"archived":false,"percentageOfSessions":null}, {"name":"Brestovec","state":"Trenčiansky","territory":"","country":"Slovakia","latitude":48.8008981,"longitude":17.5479508,"population":943,"stateCapital":false,"nationalCapital":false,"pk":null,"quiz":"europe","code":null,"archived":false,"percentageOfSessions":null}, {"name":"Brestovec","state":"Nitriansky","territory":"","country":"Slovakia","latitude":47.8786861,"longitude":17.8366143,"population":473,"stateCapital":false,"nationalCapital":false,"pk":null,"quiz":"europe","code":null,"archived":false,"percentageOfSessions":null}, {"name":"Bretejovce","state":"Prešovský","territory":"","country":"Slovakia","latitude":48.8309859,"longitude":21.2795474,"population":374,"stateCapital":false,"nationalCapital":false,"pk":null,"quiz":"europe","code":null,"archived":false,"percentageOfSessions":null}, {"name":"Bretka","state":"Košický","territory":"","country":"Slovakia","latitude":48.4926679,"longitude":20.336973,"population":375,"stateCapital":false,"nationalCapital":false,"pk":null,"quiz":"europe","code":null,"archived":false,"percentageOfSessions":null}, {"name":"Breza","state":"Žilinský","territory":"","country":"Slovakia","latitude":49.3983305,"longitude":19.3666062,"population":1572,"stateCapital":false,"nationalCapital":false,"pk":null,"quiz":"europe","code":null,"archived":false,"percentageOfSessions":null}, {"name":"Brezany","state":"Trenčiansky","territory":"","country":"Slovakia","latitude":48.8186247,"longitude":18.6851993,"population":1265,"stateCapital":false,"nationalCapital":false,"pk":null,"quiz":"europe","code":null,"archived":false,"percentageOfSessions":null}, {"name":"Brezany","state":"Žilinský","territory":"","country":"Slovakia","latitude":49.1880544,"longitude":18.6632207,"population":524,"stateCapital":false,"nationalCapital":false,"pk":null,"quiz":"europe","code":null,"archived":false,"percentageOfSessions":null}, {"name":"Brežany","state":"Prešovský","territory":"","country":"Slovakia","latitude":48.9788289,"longitude":21.1098336,"population":156,"stateCapital":false,"nationalCapital":false,"pk":null,"quiz":"europe","code":null,"archived":false,"percentageOfSessions":null}, {"name":"Brezina","state":"Košický","territory":"","country":"Slovakia","latitude":48.5516344,"longitude":21.5580488,"population":711,"stateCapital":false,"nationalCapital":false,"pk":null,"quiz":"europe","code":null,"archived":false,"percentageOfSessions":null}, {"name":"Breznica","state":"Prešovský","territory":"","country":"Slovakia","latitude":49.1555709,"longitude":21.6700775,"population":777,"stateCapital":false,"nationalCapital":false,"pk":null,"quiz":"europe","code":null,"archived":false,"percentageOfSessions":null}, {"name":"Breznička","state":"Banskobystrický","territory":"","country":"Slovakia","latitude":48.4153894,"longitude":19.7331569,"population":784,"stateCapital":false,"nationalCapital":false,"pk":null,"quiz":"europe","code":null,"archived":false,"percentageOfSessions":null}, {"name":"Breznička","state":"Prešovský","territory":"","country":"Slovakia","latitude":49.2258294,"longitude":21.7083611,"population":135,"stateCapital":false,"nationalCapital":false,"pk":null,"quiz":"europe","code":null,"archived":false,"percentageOfSessions":null}, {"name":"Brezno","state":"Banskobystrický","territory":"","country":"Slovakia","latitude":48.8394452,"longitude":19.6955611,"population":13283,"stateCapital":false,"nationalCapital":false,"pk":null,"quiz":"europe","code":null,"archived":false,"percentageOfSessions":null}, {"name":"Brezolupy","state":"Trenčiansky","territory":"","country":"Slovakia","latitude":48.7015087,"longitude":18.3090793,"population":392,"stateCapital":false,"nationalCapital":false,"pk":null,"quiz":"europe","code":null,"archived":false,"percentageOfSessions":null}, {"name":"Brezov","state":"Prešovský","territory":"","country":"Slovakia","latitude":49.142765,"longitude":21.509607,"population":402,"stateCapital":false,"nationalCapital":false,"pk":null,"quiz":"europe","code":null,"archived":false,"percentageOfSessions":null}, {"name":"Brezová pod Bradlom","state":"Trenčiansky","territory":"","country":"Slovakia","latitude":48.6719853,"longitude":17.5564215,"population":5110,"stateCapital":false,"nationalCapital":false,"pk":null,"quiz":"europe","code":null,"archived":false,"percentageOfSessions":null}, {"name":"Brezovec","state":"Prešovský","territory":"","country":"Slovakia","latitude":48.9411572,"longitude":22.3927614,"population":49,"stateCapital":false,"nationalCapital":false,"pk":null,"quiz":"europe","code":null,"archived":false,"percentageOfSessions":null}, {"name":"Brezovica","state":"Žilinský","territory":"","country":"Slovakia","latitude":49.3216963,"longitude":19.6730737,"population":1304,"stateCapital":false,"nationalCapital":false,"pk":null,"quiz":"europe","code":null,"archived":false,"percentageOfSessions":null}, {"name":"Brezovica","state":"Prešovský","territory":"","country":"Slovakia","latitude":49.1375884,"longitude":20.835506,"population":1701,"stateCapital":false,"nationalCapital":false,"pk":null,"quiz":"europe","code":null,"archived":false,"percentageOfSessions":null}, {"name":"Brezovička","state":"Prešovský","territory":"","country":"Slovakia","latitude":49.117388,"longitude":20.8341184,"population":429,"stateCapital":false,"nationalCapital":false,"pk":null,"quiz":"europe","code":null,"archived":false,"percentageOfSessions":null}, {"name":"Brezovka","state":"Prešovský","territory":"","country":"Slovakia","latitude":49.2731913,"longitude":21.4157824,"population":106,"stateCapital":false,"nationalCapital":false,"pk":null,"quiz":"europe","code":null,"archived":false,"percentageOfSessions":null}, {"name":"Brhlovce","state":"Nitriansky","territory":"","country":"Slovakia","latitude":48.2164446,"longitude":18.7401464,"population":286,"stateCapital":false,"nationalCapital":false,"pk":null,"quiz":"europe","code":null,"archived":false,"percentageOfSessions":null}, {"name":"Briestenné","state":"Trenčiansky","territory":"","country":"Slovakia","latitude":49.0065185,"longitude":18.5116912,"population":26,"stateCapital":false,"nationalCapital":false,"pk":null,"quiz":"europe","code":null,"archived":false,"percentageOfSessions":null}, {"name":"Brieštie","state":"Žilinský","territory":"","country":"Slovakia","latitude":48.920561,"longitude":18.7193337,"population":146,"stateCapital":false,"nationalCapital":false,"pk":null,"quiz":"europe","code":null,"archived":false,"percentageOfSessions":null}, {"name":"Brišovka","state":"Žilinský","territory":"","country":"Slovakia","latitude":49.365341,"longitude":19.1777246,"population":508,"stateCapital":false,"nationalCapital":false,"pk":null,"quiz":"europe","code":null,"archived":false,"percentageOfSessions":null}, {"name":"Brnice","state":"Žilinský","territory":"","country":"Slovakia","latitude":49.1393896,"longitude":19.5119656,"population":3,"stateCapital":false,"nationalCapital":false,"pk":null,"quiz":"europe","code":null,"archived":false,"percentageOfSessions":null}, {"name":"Brodno","state":"Žilinský","territory":"","country":"Slovakia","latitude":49.261589,"longitude":18.768832,"population":1253,"stateCapital":false,"nationalCapital":false,"pk":null,"quiz":"europe","code":null,"archived":false,"percentageOfSessions":null}, {"name":"Brodské","state":"Trnavský","territory":"","country":"Slovakia","latitude":48.6950145,"longitude":17.0217612,"population":2350,"stateCapital":false,"nationalCapital":false,"pk":null,"quiz":"europe","code":null,"archived":false,"percentageOfSessions":null}, {"name":"Brodzany","state":"Trenčiansky","territory":"","country":"Slovakia","latitude":48.5998656,"longitude":18.3528169,"population":807,"stateCapital":false,"nationalCapital":false,"pk":null,"quiz":"europe","code":null,"archived":false,"percentageOfSessions":null}, {"name":"Bršlica","state":"Žilinský","territory":"","country":"Slovakia","latitude":49.3021162,"longitude":18.5065942,"population":0,"stateCapital":false,"nationalCapital":false,"pk":null,"quiz":"europe","code":null,"archived":false,"percentageOfSessions":null}, {"name":"Bruchačka","state":"Banskobystrický","territory":"","country":"Slovakia","latitude":48.8837059,"longitude":19.5833543,"population":39,"stateCapital":false,"nationalCapital":false,"pk":null,"quiz":"europe","code":null,"archived":false,"percentageOfSessions":null}, {"name":"Brunovce","state":"Trenčiansky","territory":"","country":"Slovakia","latitude":48.6782501,"longitude":17.8497965,"population":557,"stateCapital":false,"nationalCapital":false,"pk":null,"quiz":"europe","code":null,"archived":false,"percentageOfSessions":null}, {"name":"Brusnica","state":"Prešovský","territory":"","country":"Slovakia","latitude":49.1490864,"longitude":21.7089704,"population":417,"stateCapital":false,"nationalCapital":false,"pk":null,"quiz":"europe","code":null,"archived":false,"percentageOfSessions":null}, {"name":"Brusník","state":"Banskobystrický","territory":"","country":"Slovakia","latitude":48.3027679,"longitude":19.4175716,"population":34,"stateCapital":false,"nationalCapital":false,"pk":null,"quiz":"europe","code":null,"archived":false,"percentageOfSessions":null}, {"name":"Brusník","state":"Banskobystrický","territory":"","country":"Slovakia","latitude":48.3027679,"longitude":19.4175716,"population":105,"stateCapital":false,"nationalCapital":false,"pk":null,"quiz":"europe","code":null,"archived":false,"percentageOfSessions":null}, {"name":"Brusno","state":"Trenčiansky","territory":"","country":"Slovakia","latitude":48.7608158,"longitude":18.719161,"population":732,"stateCapital":false,"nationalCapital":false,"pk":null,"quiz":"europe","code":null,"archived":false,"percentageOfSessions":null}, {"name":"Brusno","state":"Banskobystrický","territory":"","country":"Slovakia","latitude":48.8270612,"longitude":19.389056,"population":947,"stateCapital":false,"nationalCapital":false,"pk":null,"quiz":"europe","code":null,"archived":false,"percentageOfSessions":null}, {"name":"Brusno-kúpele","state":"Banskobystrický","territory":"","country":"Slovakia","latitude":48.785687,"longitude":19.3955392,"population":14,"stateCapital":false,"nationalCapital":false,"pk":null,"quiz":"europe","code":null,"archived":false,"percentageOfSessions":null}, {"name":"Brutovce","state":"Prešovský","territory":"","country":"Slovakia","latitude":49.0908221,"longitude":20.7959716,"population":197,"stateCapital":false,"nationalCapital":false,"pk":null,"quiz":"europe","code":null,"archived":false,"percentageOfSessions":null}, {"name":"Bruty","state":"Nitriansky","territory":"","country":"Slovakia","latitude":47.9131785,"longitude":18.5697027,"population":618,"stateCapital":false,"nationalCapital":false,"pk":null,"quiz":"europe","code":null,"archived":false,"percentageOfSessions":null}, {"name":"Brvnište","state":"Trenčiansky","territory":"","country":"Slovakia","latitude":49.2137357,"longitude":18.4233556,"population":1182,"stateCapital":false,"nationalCapital":false,"pk":null,"quiz":"europe","code":null,"archived":false,"percentageOfSessions":null}, {"name":"Brzotín","state":"Košický","territory":"","country":"Slovakia","latitude":48.627856,"longitude":20.496516,"population":1316,"stateCapital":false,"nationalCapital":false,"pk":null,"quiz":"europe","code":null,"archived":false,"percentageOfSessions":null}, {"name":"Búč","state":"Nitriansky","territory":"","country":"Slovakia","latitude":47.8042168,"longitude":18.471514,"population":1190,"stateCapital":false,"nationalCapital":false,"pk":null,"quiz":"europe","code":null,"archived":false,"percentageOfSessions":null}, {"name":"Bučany","state":"Trnavský","territory":"","country":"Slovakia","latitude":48.4136959,"longitude":17.6887096,"population":2267,"stateCapital":false,"nationalCapital":false,"pk":null,"quiz":"europe","code":null,"archived":false,"percentageOfSessions":null}, {"name":"Bučina","state":"Žilinský","territory":"","country":"Slovakia","latitude":49.3737722,"longitude":19.1769347,"population":180,"stateCapital":false,"nationalCapital":false,"pk":null,"quiz":"europe","code":null,"archived":false,"percentageOfSessions":null}, {"name":"Bučkovec","state":"Trenčiansky","territory":"","country":"Slovakia","latitude":48.8495732,"longitude":17.758332,"population":260,"stateCapital":false,"nationalCapital":false,"pk":null,"quiz":"europe","code":null,"archived":false,"percentageOfSessions":null}, {"name":"Buclovany","state":"Prešovský","territory":"","country":"Slovakia","latitude":49.1599743,"longitude":21.3714495,"population":219,"stateCapital":false,"nationalCapital":false,"pk":null,"quiz":"europe","code":null,"archived":false,"percentageOfSessions":null}, {"name":"Bučuháza","state":"Trnavský","territory":"","country":"Slovakia","latitude":48.0312503,"longitude":17.3466774,"population":52,"stateCapital":false,"nationalCapital":false,"pk":null,"quiz":"europe","code":null,"archived":false,"percentageOfSessions":null}, {"name":"Budatín","state":"Žilinský","territory":"","country":"Slovakia","latitude":49.2378868,"longitude":18.7490896,"population":1561,"stateCapital":false,"nationalCapital":false,"pk":null,"quiz":"europe","code":null,"archived":false,"percentageOfSessions":null}, {"name":"Budatínska Lehota","state":"Žilinský","territory":"","country":"Slovakia","latitude":49.2982241,"longitude":18.8350926,"population":639,"stateCapital":false,"nationalCapital":false,"pk":null,"quiz":"europe","code":null,"archived":false,"percentageOfSessions":null}, {"name":"Budča","state":"Banskobystrický","territory":"","country":"Slovakia","latitude":48.5753366,"longitude":19.0448349,"population":1266,"stateCapital":false,"nationalCapital":false,"pk":null,"quiz":"europe","code":null,"archived":false,"percentageOfSessions":null}, {"name":"Budička","state":"Banskobystrický","territory":"","country":"Slovakia","latitude":48.5992795,"longitude":19.015236,"population":59,"stateCapital":false,"nationalCapital":false,"pk":null,"quiz":"europe","code":null,"archived":false,"percentageOfSessions":null}, {"name":"Budikovany","state":"Banskobystrický","territory":"","country":"Slovakia","latitude":48.4915436,"longitude":20.0931929,"population":50,"stateCapital":false,"nationalCapital":false,"pk":null,"quiz":"europe","code":null,"archived":false,"percentageOfSessions":null}, {"name":"Budimír","state":"Košický","territory":"","country":"Slovakia","latitude":48.79651,"longitude":21.2927799,"population":1042,"stateCapital":false,"nationalCapital":false,"pk":null,"quiz":"europe","code":null,"archived":false,"percentageOfSessions":null}, {"name":"Budiná","state":"Banskobystrický","territory":"","country":"Slovakia","latitude":48.470587,"longitude":19.4531112,"population":263,"stateCapital":false,"nationalCapital":false,"pk":null,"quiz":"europe","code":null,"archived":false,"percentageOfSessions":null}, {"name":"Budince","state":"Košický","territory":"","country":"Slovakia","latitude":48.5461257,"longitude":22.1207425,"population":230,"stateCapital":false,"nationalCapital":false,"pk":null,"quiz":"europe","code":null,"archived":false,"percentageOfSessions":null}, {"name":"Budiš","state":"Žilinský","territory":"","country":"Slovakia","latitude":48.8537461,"longitude":18.7326569,"population":208,"stateCapital":false,"nationalCapital":false,"pk":null,"quiz":"europe","code":null,"archived":false,"percentageOfSessions":null}, {"name":"Budkovce","state":"Košický","territory":"","country":"Slovakia","latitude":48.6364689,"longitude":21.9342318,"population":1339,"stateCapital":false,"nationalCapital":false,"pk":null,"quiz":"europe","code":null,"archived":false,"percentageOfSessions":null}, {"name":"Budmerice","state":"Bratislavský","territory":"","country":"Slovakia","latitude":48.3608443,"longitude":17.4061362,"population":2230,"stateCapital":false,"nationalCapital":false,"pk":null,"quiz":"europe","code":null,"archived":false,"percentageOfSessions":null}, {"name":"Budulov","state":"Košický","territory":"","country":"Slovakia","latitude":48.5810971,"longitude":20.9884347,"population":522,"stateCapital":false,"nationalCapital":false,"pk":null,"quiz":"europe","code":null,"archived":false,"percentageOfSessions":null}, {"name":"Budzín","state":"Prešovský","territory":"","country":"Slovakia","latitude":49.1548731,"longitude":20.9421808,"population":97,"stateCapital":false,"nationalCapital":false,"pk":null,"quiz":"europe","code":null,"archived":false,"percentageOfSessions":null}, {"name":"Buglovce","state":"Prešovský","territory":"","country":"Slovakia","latitude":48.9848148,"longitude":20.6925613,"population":269,"stateCapital":false,"nationalCapital":false,"pk":null,"quiz":"europe","code":null,"archived":false,"percentageOfSessions":null}, {"name":"Bujakovo","state":"Banskobystrický","territory":"","country":"Slovakia","latitude":48.820615,"longitude":19.6850136,"population":229,"stateCapital":false,"nationalCapital":false,"pk":null,"quiz":"europe","code":null,"archived":false,"percentageOfSessions":null}, {"name":"Buková","state":"Trnavský","territory":"","country":"Slovakia","latitude":48.537315,"longitude":17.3930949,"population":665,"stateCapital":false,"nationalCapital":false,"pk":null,"quiz":"europe","code":null,"archived":false,"percentageOfSessions":null}, {"name":"Buková","state":"Žilinský","territory":"","country":"Slovakia","latitude":48.999645,"longitude":19.6658839,"population":269,"stateCapital":false,"nationalCapital":false,"pk":null,"quiz":"europe","code":null,"archived":false,"percentageOfSessions":null}, {"name":"Bukovce","state":"Prešovský","territory":"","country":"Slovakia","latitude":49.265805,"longitude":21.7123961,"population":524,"stateCapital":false,"nationalCapital":false,"pk":null,"quiz":"europe","code":null,"archived":false,"percentageOfSessions":null}, {"name":"Bukovec","state":"Trenčiansky","territory":"","country":"Slovakia","latitude":48.695432,"longitude":17.4952654,"population":420,"stateCapital":false,"nationalCapital":false,"pk":null,"quiz":"europe","code":null,"archived":false,"percentageOfSessions":null}, {"name":"Bukovec","state":"Banskobystrický","territory":"","country":"Slovakia","latitude":48.8900652,"longitude":20.1993286,"population":127,"stateCapital":false,"nationalCapital":false,"pk":null,"quiz":"europe","code":null,"archived":false,"percentageOfSessions":null}, {"name":"Bukovec","state":"Košický","territory":"","country":"Slovakia","latitude":48.7149076,"longitude":21.1422394,"population":777,"stateCapital":false,"nationalCapital":false,"pk":null,"quiz":"europe","code":null,"archived":false,"percentageOfSessions":null}, {"name":"Bukovina","state":"Žilinský","territory":"","country":"Slovakia","latitude":49.1350202,"longitude":19.4715234,"population":112,"stateCapital":false,"nationalCapital":false,"pk":null,"quiz":"europe","code":null,"archived":false,"percentageOfSessions":null}, {"name":"Bukovina","state":"Banskobystrický","territory":"","country":"Slovakia","latitude":48.540528,"longitude":18.7173548,"population":196,"stateCapital":false,"nationalCapital":false,"pk":null,"quiz":"europe","code":null,"archived":false,"percentageOfSessions":null}, {"name":"Bukovina","state":"Banskobystrický","territory":"","country":"Slovakia","latitude":48.540528,"longitude":18.7173548,"population":179,"stateCapital":false,"nationalCapital":false,"pk":null,"quiz":"europe","code":null,"archived":false,"percentageOfSessions":null}, {"name":"Bukovinka","state":"Banskobystrický","territory":"","country":"Slovakia","latitude":48.4532047,"longitude":19.8068196,"population":86,"stateCapital":false,"nationalCapital":false,"pk":null,"quiz":"europe","code":null,"archived":false,"percentageOfSessions":null}, {"name":"Bukovinka","state":"Prešovský","territory":"","country":"Slovakia","latitude":49.2837792,"longitude":21.5769694,"population":166,"stateCapital":false,"nationalCapital":false,"pk":null,"quiz":"europe","code":null,"archived":false,"percentageOfSessions":null}, {"name":"Bulhary","state":"Banskobystrický","territory":"","country":"Slovakia","latitude":48.2944023,"longitude":19.8547924,"population":305,"stateCapital":false,"nationalCapital":false,"pk":null,"quiz":"europe","code":null,"archived":false,"percentageOfSessions":null}, {"name":"Bunde","state":"Prešovský","territory":"","country":"Slovakia","latitude":49.0255186,"longitude":21.0607137,"population":88,"stateCapital":false,"nationalCapital":false,"pk":null,"quiz":"europe","code":null,"archived":false,"percentageOfSessions":null}, {"name":"Bunetice","state":"Košický","territory":"","country":"Slovakia","latitude":48.8630728,"longitude":21.3947335,"population":85,"stateCapital":false,"nationalCapital":false,"pk":null,"quiz":"europe","code":null,"archived":false,"percentageOfSessions":null}, {"name":"Bunkovce","state":"Košický","territory":"","country":"Slovakia","latitude":48.7207914,"longitude":22.120204,"population":361,"stateCapital":false,"nationalCapital":false,"pk":null,"quiz":"europe","code":null,"archived":false,"percentageOfSessions":null}, {"name":"Bušince","state":"Banskobystrický","territory":"","country":"Slovakia","latitude":48.1839133,"longitude":19.4932438,"population":1451,"stateCapital":false,"nationalCapital":false,"pk":null,"quiz":"europe","code":null,"archived":false,"percentageOfSessions":null}, {"name":"Bušovce","state":"Prešovský","territory":"","country":"Slovakia","latitude":49.2231041,"longitude":20.4795321,"population":313,"stateCapital":false,"nationalCapital":false,"pk":null,"quiz":"europe","code":null,"archived":false,"percentageOfSessions":null}, {"name":"Búštelek","state":"Trnavský","territory":"","country":"Slovakia","latitude":48.1485685,"longitude":17.3853295,"population":117,"stateCapital":false,"nationalCapital":false,"pk":null,"quiz":"europe","code":null,"archived":false,"percentageOfSessions":null}, {"name":"Buzica","state":"Košický","territory":"","country":"Slovakia","latitude":48.52671,"longitude":21.0952052,"population":1195,"stateCapital":false,"nationalCapital":false,"pk":null,"quiz":"europe","code":null,"archived":false,"percentageOfSessions":null}, {"name":"Buzice","state":"Košický","territory":"","country":"Slovakia","latitude":48.6407258,"longitude":21.28912,"population":1635,"stateCapital":false,"nationalCapital":false,"pk":null,"quiz":"europe","code":null,"archived":false,"percentageOfSessions":null}, {"name":"Buzitka","state":"Banskobystrický","territory":"","country":"Slovakia","latitude":48.3271663,"longitude":19.8249023,"population":368,"stateCapital":false,"nationalCapital":false,"pk":null,"quiz":"europe","code":null,"archived":false,"percentageOfSessions":null}, {"name":"Byšta","state":"Košický","territory":"","country":"Slovakia","latitude":48.52739,"longitude":21.550659,"population":162,"stateCapital":false,"nationalCapital":false,"pk":null,"quiz":"europe","code":null,"archived":false,"percentageOfSessions":null}, {"name":"Byster","state":"Košický","territory":"","country":"Slovakia","latitude":48.7160878,"longitude":21.3601193,"population":839,"stateCapital":false,"nationalCapital":false,"pk":null,"quiz":"europe","code":null,"archived":false,"percentageOfSessions":null}, {"name":"Bystrá","state":"Banskobystrický","territory":"","country":"Slovakia","latitude":48.8872026,"longitude":19.6206406,"population":203,"stateCapital":false,"nationalCapital":false,"pk":null,"quiz":"europe","code":null,"archived":false,"percentageOfSessions":null}, {"name":"Bystrá","state":"Prešovský","territory":"","country":"Slovakia","latitude":49.2445285,"longitude":21.8204104,"population":30,"stateCapital":false,"nationalCapital":false,"pk":null,"quiz":"europe","code":null,"archived":false,"percentageOfSessions":null}, {"name":"Bystrany","state":"Košický","territory":"","country":"Slovakia","latitude":48.9592948,"longitude":20.7524785,"population":3188,"stateCapital":false,"nationalCapital":false,"pk":null,"quiz":"europe","code":null,"archived":false,"percentageOfSessions":null}, {"name":"Bystré","state":"Prešovský","territory":"","country":"Slovakia","latitude":49.0071106,"longitude":21.5387674,"population":2669,"stateCapital":false,"nationalCapital":false,"pk":null,"quiz":"europe","code":null,"archived":false,"percentageOfSessions":null}, {"name":"Bystričany","state":"Trenčiansky","territory":"","country":"Slovakia","latitude":48.6388144,"longitude":18.5610787,"population":1508,"stateCapital":false,"nationalCapital":false,"pk":null,"quiz":"europe","code":null,"archived":false,"percentageOfSessions":null}, {"name":"Bystrička","state":"Nitriansky","territory":"","country":"Slovakia","latitude":47.7634511,"longitude":18.3580285,"population":7,"stateCapital":false,"nationalCapital":false,"pk":null,"quiz":"europe","code":null,"archived":false,"percentageOfSessions":null}, {"name":"Bystrička","state":"Žilinský","territory":"","country":"Slovakia","latitude":49.0597475,"longitude":18.8459825,"population":1413,"stateCapital":false,"nationalCapital":false,"pk":null,"quiz":"europe","code":null,"archived":false,"percentageOfSessions":null}, {"name":"Bystrička","state":"Banskobystrický","territory":"","country":"Slovakia","latitude":48.4652982,"longitude":19.7061084,"population":189,"stateCapital":false,"nationalCapital":false,"pk":null,"quiz":"europe","code":null,"archived":false,"percentageOfSessions":null}, {"name":"Bytča","state":"Žilinský","territory":"","country":"Slovakia","latitude":49.2235748,"longitude":18.5586825,"population":11318,"stateCapital":false,"nationalCapital":false,"pk":null,"quiz":"europe","code":null,"archived":false,"percentageOfSessions":null}, {"name":"Bytčica","state":"Žilinský","territory":"","country":"Slovakia","latitude":49.1810909,"longitude":18.7377103,"population":2245,"stateCapital":false,"nationalCapital":false,"pk":null,"quiz":"europe","code":null,"archived":false,"percentageOfSessions":null}, {"name":"Bžany","state":"Prešovský","territory":"","country":"Slovakia","latitude":49.0831434,"longitude":21.627691,"population":164,"stateCapital":false,"nationalCapital":false,"pk":null,"quiz":"europe","code":null,"archived":false,"percentageOfSessions":null}, {"name":"Bzenica","state":"Banskobystrický","territory":"","country":"Slovakia","latitude":48.5148217,"longitude":18.7530725,"population":344,"stateCapital":false,"nationalCapital":false,"pk":null,"quiz":"europe","code":null,"archived":false,"percentageOfSessions":null}, {"name":"Bzenov","state":"Prešovský","territory":"","country":"Slovakia","latitude":48.9584761,"longitude":21.1606621,"population":754,"stateCapital":false,"nationalCapital":false,"pk":null,"quiz":"europe","code":null,"archived":false,"percentageOfSessions":null}, {"name":"Bzince","state":"Nitriansky","territory":"","country":"Slovakia","latitude":48.5237939,"longitude":17.9320672,"population":212,"stateCapital":false,"nationalCapital":false,"pk":null,"quiz":"europe","code":null,"archived":false,"percentageOfSessions":null}, {"name":"Bzince pod Javorinou","state":"Trenčiansky","territory":"","country":"Slovakia","latitude":48.78734,"longitude":17.7717047,"population":1267,"stateCapital":false,"nationalCapital":false,"pk":null,"quiz":"europe","code":null,"archived":false,"percentageOfSessions":null}, {"name":"Bziny","state":"Žilinský","territory":"","country":"Slovakia","latitude":49.2203069,"longitude":19.3357714,"population":546,"stateCapital":false,"nationalCapital":false,"pk":null,"quiz":"europe","code":null,"archived":false,"percentageOfSessions":null}, {"name":"Bzovík","state":"Banskobystrický","territory":"","country":"Slovakia","latitude":48.3176055,"longitude":19.0844389,"population":1103,"stateCapital":false,"nationalCapital":false,"pk":null,"quiz":"europe","code":null,"archived":false,"percentageOfSessions":null}, {"name":"Bzovská Lehôtka","state":"Banskobystrický","territory":"","country":"Slovakia","latitude":48.4024041,"longitude":19.132101,"population":134,"stateCapital":false,"nationalCapital":false,"pk":null,"quiz":"europe","code":null,"archived":false,"percentageOfSessions":null}, {"name":"Čab","state":"Nitriansky","territory":"","country":"Slovakia","latitude":48.3993641,"longitude":17.992467,"population":781,"stateCapital":false,"nationalCapital":false,"pk":null,"quiz":"europe","code":null,"archived":false,"percentageOfSessions":null}, {"name":"Cabaj","state":"Nitriansky","territory":"","country":"Slovakia","latitude":48.2314628,"longitude":18.026054,"population":2550,"stateCapital":false,"nationalCapital":false,"pk":null,"quiz":"europe","code":null,"archived":false,"percentageOfSessions":null}, {"name":"Čabalovce","state":"Prešovský","territory":"","country":"Slovakia","latitude":49.2290821,"longitude":21.969924,"population":358,"stateCapital":false,"nationalCapital":false,"pk":null,"quiz":"europe","code":null,"archived":false,"percentageOfSessions":null}, {"name":"Čabiny","state":"Prešovský","territory":"","country":"Slovakia","latitude":49.1857548,"longitude":21.9100492,"population":391,"stateCapital":false,"nationalCapital":false,"pk":null,"quiz":"europe","code":null,"archived":false,"percentageOfSessions":null}, {"name":"Cabov","state":"Prešovský","territory":"","country":"Slovakia","latitude":48.7941814,"longitude":21.6204103,"population":410,"stateCapital":false,"nationalCapital":false,"pk":null,"quiz":"europe","code":null,"archived":false,"percentageOfSessions":null}, {"name":"Čabradský Vrbovok","state":"Banskobystrický","territory":"","country":"Slovakia","latitude":48.2441721,"longitude":19.0890352,"population":271,"stateCapital":false,"nationalCapital":false,"pk":null,"quiz":"europe","code":null,"archived":false,"percentageOfSessions":null}, {"name":"Čachtice","state":"Trenčiansky","territory":"","country":"Slovakia","latitude":48.721018,"longitude":17.7850031,"population":3986,"stateCapital":false,"nationalCapital":false,"pk":null,"quiz":"europe","code":null,"archived":false,"percentageOfSessions":null}, {"name":"Čačín","state":"Banskobystrický","territory":"","country":"Slovakia","latitude":48.6765533,"longitude":19.2582243,"population":155,"stateCapital":false,"nationalCapital":false,"pk":null,"quiz":"europe","code":null,"archived":false,"percentageOfSessions":null}, {"name":"Čáčov","state":"Trnavský","territory":"","country":"Slovakia","latitude":48.6776988,"longitude":17.3376623,"population":1047,"stateCapital":false,"nationalCapital":false,"pk":null,"quiz":"europe","code":null,"archived":false,"percentageOfSessions":null}, {"name":"Čadca","state":"Žilinský","territory":"","country":"Slovakia","latitude":49.441168,"longitude":18.7981757,"population":6747,"stateCapital":false,"nationalCapital":false,"pk":null,"quiz":"europe","code":null,"archived":false,"percentageOfSessions":null}, {"name":"Čadečka","state":"Žilinský","territory":"","country":"Slovakia","latitude":49.4541426,"longitude":18.7876248,"population":1558,"stateCapital":false,"nationalCapital":false,"pk":null,"quiz":"europe","code":null,"archived":false,"percentageOfSessions":null}, {"name":"Čajakovo","state":"Nitriansky","territory":"","country":"Slovakia","latitude":47.9892452,"longitude":18.6471612,"population":511,"stateCapital":false,"nationalCapital":false,"pk":null,"quiz":"europe","code":null,"archived":false,"percentageOfSessions":null}, {"name":"Čajkov","state":"Nitriansky","territory":"","country":"Slovakia","latitude":48.3152456,"longitude":18.6148252,"population":1013,"stateCapital":false,"nationalCapital":false,"pk":null,"quiz":"europe","code":null,"archived":false,"percentageOfSessions":null}, {"name":"Čaka","state":"Nitriansky","territory":"","country":"Slovakia","latitude":48.0382844,"longitude":18.4785557,"population":805,"stateCapital":false,"nationalCapital":false,"pk":null,"quiz":"europe","code":null,"archived":false,"percentageOfSessions":null}, {"name":"Čakajovce","state":"Nitriansky","territory":"","country":"Slovakia","latitude":48.3750798,"longitude":18.0440622,"population":1112,"stateCapital":false,"nationalCapital":false,"pk":null,"quiz":"europe","code":null,"archived":false,"percentageOfSessions":null}, {"name":"Čakanovce","state":"Banskobystrický","territory":"","country":"Slovakia","latitude":48.2112091,"longitude":19.7871212,"population":1111,"stateCapital":false,"nationalCapital":false,"pk":null,"quiz":"europe","code":null,"archived":false,"percentageOfSessions":null}, {"name":"Čakanovce","state":"Košický","territory":"","country":"Slovakia","latitude":48.7748734,"longitude":21.4357605,"population":618,"stateCapital":false,"nationalCapital":false,"pk":null,"quiz":"europe","code":null,"archived":false,"percentageOfSessions":null}, {"name":"Čakany","state":"Trnavský","territory":"","country":"Slovakia","latitude":48.1159396,"longitude":17.3716422,"population":570,"stateCapital":false,"nationalCapital":false,"pk":null,"quiz":"europe","code":null,"archived":false,"percentageOfSessions":null}, {"name":"Čaklov","state":"Prešovský","territory":"","country":"Slovakia","latitude":48.8980392,"longitude":21.6160014,"population":2442,"stateCapital":false,"nationalCapital":false,"pk":null,"quiz":"europe","code":null,"archived":false,"percentageOfSessions":null}, {"name":"Cakov","state":"Banskobystrický","territory":"","country":"Slovakia","latitude":48.3336214,"longitude":20.2163051,"population":296,"stateCapital":false,"nationalCapital":false,"pk":null,"quiz":"europe","code":null,"archived":false,"percentageOfSessions":null},